"ID","Name","Long","Lat","X1960","X1970","X1980","X1991","X2000","X2010"
3550308,"RM Sao Paulo",-46.57038318,-23.5673865,3781446,5924615,12588725,15444981,17878703,19672582
3304557,"RM Rio de Janeiro",-43.22787513,-22.87665212,3307163,4251918,8758420,9796649,10869255,11838752
3106200,"RM Belo Horizonte",-43.92645317,-19.93752429,683908,1235030,2973102,3910097,4819288,5413627
2927408,"RM Salvador",-38.48806148,-13.01477191,649453,1007195,2193387,3097459,3797499,4473002
4314902,"RM Porto Alegre",-51.22866046,-30.03003677,641173,885545,2231392,3026819,3718778,3960068
5300108,"RIDE Distrito Federal (Brasilia)",-47.88790548,-15.79408736,130796,535079,1176935,1601094,2952276,3710543
2304400,"RM Fortaleza",-38.58992756,-3.723805035,507108,857980,1699390,2460827,3056769,3610379
2611606,"RM Recife",-34.88894194,-8.062762483,797234,1060701,2313216,2840142,3255288,3586441
4106902,"RM Curitiba",-49.27184789,-25.432956,361309,609026,1532329,2101681,2768394,3168980
3509502,"RM Campinas",-47.06015627,-22.9073425,217219,375864,664559,847595,2338148,2798477
5208707,"RM Goiania",-49.25581428,-16.67330977,155013,326864,717526,922222,1743297,2173006
1302603,"RM Manaus",-60.02333518,-3.134691491,169357,311622,633392,1011501,1405835,2106866
1501402,"RM Belem",-48.48782569,-1.459845,389538,633374,1045533,1434634,1838763,2100319
3205309,"RM Grande Vitoria",-40.32220873,-20.32015379,85242,133019,207747,258777,1438596,1685384
3548500,"RM Baixada Santista (Santos)",-46.33137085,-23.9337375,262997,345630,416681,428923,1476820,1663082
2408102,"RM Natal",-35.25225473,-5.750898538,162537,264379,416898,606887,1124669,1350840
2111300,"RM Grande Sao Luis",-44.29791856,-2.531885985,159628,265486,449432,696371,870028,1327881
2704302,"RM Maceio",-35.70162991,-9.660822152,168055,263670,399298,629041,1040638,1210869
2507507,"RM Joao Pessoa",-34.87338481,-7.14938202,155117,221546,329942,497600,597934,1198675
2211001,"RIDE Grande Teresina",-42.80527046,-5.086341952,144799,220487,377774,599272,715360,1151088
4209102,"RM Norte/Nordeste Catarinense (Joinville)",-48.84940914,-26.30451765,70687,126058,235812,346332,906982,1094570
4205407,"RM Florianopolis",-48.54763738,-27.58779555,98520,138337,187871,254941,816315,1012831
5103403,"RM Vale do Rio Cuiaba",-56.07325204,-15.56998901,57860,100860,212984,402813,483346,834060
5002704,"Campo Grande",-36.79084005,-9.956922603,74249,140233,291777,526126,663621,787204
4113700,"RM Londrina",-51.16277342,-23.312156,134821,228101,301711,390100,678032,764258
4202404,"RM Vale do Itajai (Blumenau)",-49.05763088,-26.91610771,67092,100275,157258,211862,558165,689909
2504009,"RM Campina Grande",-35.88385911,-7.22149704,207445,195303,247820,326307,355331,687135
2611101,"RIDE Petrolina-Juazeiro",-40.49999933,-9.397375515,35517,61252,104300,175406,218538,686530
3549904,"Sao Jose dos Campos",-45.8841754,-23.1840615,76994,148342,287513,442370,539313,627544
4115200,"RM Maringa",-51.93988187,-23.42228,104131,121334,168239,240292,517490,612617
3543402,"Ribeirao Preto",-47.80547592,-21.1848345,145267,212879,318496,436682,504923,605114
2700300,"RM Agreste (Arapiraca)",-36.65729651,-9.755907011,56657,94287,136179,164921,186466,601251
3170206,"Uberlandia",-48.27795018,-18.91899861,87581,124706,240961,367061,501214,600285
3552205,"Sorocaba",-47.45785325,-23.499323,136271,175677,269830,379006,493468,586311
2800308,"Aracaju",-37.04821264,-10.9072158,114162,183670,293131,402341,461534,570937
2307304,"RM Cariri (Juazeiro do Norte)",-39.31699336,-7.210766,67513,96047,135616,173566,212133,564557
2910800,"Feira de Santana",-38.9600331,-12.22928425,139747,187290,291504,406447,480949,556756
4204608,"RM Carbonifera (Criciuma)",-49.36593956,-28.67357225,62650,81452,101379,146162,170420,550243
4208203,"RM Foz do Rio Itajai (Itajai)",-48.65702321,-26.90742624,55515,63139,86460,119631,147494,532830
3136702,"Juiz de Fora",-43.34881727,-21.76092431,181389,238510,307525,385996,456796,517872
1600303,"RM Macapa",-51.05740546,0.03895101,46905,86097,137451,169579,283308,499116
3301009,"Campos dos Goytacazes",-41.33047649,-21.75189863,292292,318806,348461,389109,406989,463545
4305108,"Caxias do Sul",-51.17886021,-29.16689901,102702,144871,220566,290925,360419,435482
1100205,"Porto Velho",-63.83144565,-8.76889179,51049,84048,133898,287534,334661,426558
3549805,"Sao Jose do Rio Preto",-49.38134769,-20.8126365,82119,122134,188601,283761,358523,408435
4204202,"RM Chapeco",-52.61703111,-27.10683702,51981,49865,83768,122889,146967,403458
3525904,"Jundiai",-46.88527397,-23.187668,117932,169076,258808,289269,323397,370251
3538709,"Piracicaba",-47.64684624,-22.723722,115403,152505,214295,283833,329158,364872
3143401,"Montes Claros",-46.57370269,-22.43354882,131337,116486,177308,250062,306947,361971
4218707,"RM Tubarao",-49.00526808,-28.48003395,63268,66876,75237,95058,88470,356790
4209300,"RM Lages",-50.33022242,-27.81725946,121027,128728,129685,151100,157682,350607
2105302,"RM Sudoeste Maranhense (Imperatriz)",-47.47981081,-5.526524025,39331,80827,220095,276502,230566,345878
3506003,"Bauru",-49.08300087,-22.3251225,92099,131936,186644,261112,316064,344039
1200401,"Rio Branco",-58.11793935,-15.23568281,49075,83977,117103,187169,253059,335796
5201108,"Anapolis",-48.9572179,-16.32882574,68016,105029,180015,239378,288085,335032
4314407,"Pelotas",-52.34432006,-31.71959788,178265,207869,259950,291100,323158,327778
3516200,"Franca",-47.40233163,-20.536097,66702,93638,148997,233098,287737,318785
2604106,"Caruaru",-35.96707336,-8.285898,106231,142653,172532,213697,253634,314951
4119905,"Ponta Grossa",-50.16144206,-25.092547,90889,126940,186647,233984,273616,311697
2933307,"Vitoria da Conquista",-40.83980954,-14.84800481,141835,125573,170624,225091,262494,306374
3303906,"Petropolis",-43.17733658,-22.51059861,150300,189140,242009,255468,286537,296044
3170107,"Uberaba",-47.9836249,-19.71353461,87581,124490,199203,211824,252051,296000
1506807,"Santarem",-54.71857017,-2.43621333,91211,135215,191950,265062,262538,294774
4104808,"Cascavel",-38.23968594,-4.131433678,39598,89981,163459,192990,245369,286172
1400100,"Boa Vista",-60.67053267,2.816681919,26168,36464,67047,144249,200568,284258
3554102,"Taubate",-45.5566087,-23.0265555,77307,110585,169265,206965,244165,278724
3526902,"Limeira",-47.40193952,-22.562194,59824,90963,150558,207770,249046,276010
3127701,"Governador Valadares",-41.94708133,-18.8528824,120602,162020,196115,230524,247131,263594
4316907,"Santa Maria",-35.69036386,-5.838518701,120975,156609,181579,217592,243611,261027
2408003,"Mossoro",-37.35687414,-5.193801235,57690,97245,145989,192267,213841,259886
3306305,"Volta Redonda",-44.09352188,-22.5099676,88740,125295,183641,220305,242063,257996
4108304,"Foz do Igua_u",-54.58710249,-25.54249328,28212,33966,136321,190123,258543,256081
1504208,"Maraba",-49.14202533,-5.352605763,20075,24474,59915,123668,168020,233462
3548906,"Sao Carlos",-53.01739427,-27.07863508,61287,85425,119542,158221,192998,221936
3529005,"Marilia",-49.95164564,-22.214933,89198,98176,121774,161149,197342,216684
3167202,"Sete Lagoas",-44.23959462,-19.45828742,41405,66585,100628,144014,184871,214071
3122306,"Divinopolis",-44.89388553,-20.14207397,52840,80344,117330,151462,183962,213076
3524402,"Jacarei",-45.9695932,-23.3048805,34860,61216,115732,163869,191291,211308
3503208,"Araraquara",-48.17443994,-21.7903595,81600,100438,128109,166731,182471,208725
3541406,"Presidente Prudente",-51.38676558,-22.1227435,71270,105707,136846,165484,189186,207625
3302403,"Macae",-41.77506429,-22.36870497,58805,65318,75851,100895,132461,206748
2914802,"Itabuna",-39.27310895,-14.78903955,116967,112721,153342,185277,196675,204710
4315602,"Rio Grande",-52.0867697,-32.05044579,100378,116488,146115,172422,186544,197253
5003702,"Dourados",-54.81128912,-22.22723554,84955,79176,106493,135894,164949,196068
5107602,"Rondonopolis",-54.63358704,-16.47016287,22554,62086,81366,126627,150227,195550
3201209,"Cachoeiro de Itapemirim",-41.11191881,-20.85011235,91564,100010,123699,143449,174879,189878
2312908,"Sobral",-40.34866803,-3.688037684,72511,102197,118026,127489,155276,188271
3543907,"Rio Claro",-44.13940564,-22.73172683,59843,78040,110212,138243,168218,186299
3300704,"Cabo Frio",-42.0200748,-22.88076467,27441,44379,70955,84915,126828,186222
4314100,"Passo Fundo",-52.40709509,-28.26176713,93179,93850,121156,147318,168458,184869
2913606,"Ilheus",-39.04318429,-14.79332027,103274,107971,131454,223750,222127,184231
3303401,"Nova Friburgo",-42.53277126,-22.28646146,70145,90420,123370,167081,173418,182016
3502804,"Ara_atuba",-50.43922607,-21.205476,79777,108512,129304,159557,169254,181618
3300407,"Barra Mansa",-44.17243137,-22.54530113,63814,101660,134741,172216,170753,177861
5218805,"Rio Verde",-50.92968093,-17.7945434,39823,55697,74694,96309,116552,176502
4106605,"Cruzeiro do Oeste",-53.08182161,-23.77690486,135816,369730,253827,207810,170063,175781
1502400,"Castanhal",-47.92664314,-1.295756805,19717,37910,65251,102071,134496,173096
3300100,"Angra dos Reis",-44.31962726,-23.00911594,28773,40276,57861,85571,119247,169270
4109401,"Guarapuava",-51.46343108,-25.39359198,96947,110903,158587,159634,155161,167463
3305802,"Teresopolis",-42.96295671,-22.40900495,52318,73128,98705,120709,138081,163805
2804805,"Nossa Senhora do Socorro (Cotinguiba)",-37.12849613,-10.84875418,7713,9346,13688,67574,131679,160829
2103000,"Caxias",-43.35853943,-4.86167499,129271,88334,125507,145725,139756,155202
3523909,"Itu",-47.29974984,-23.2654425,37027,49091,74204,107314,135366,154200
3151800,"Po_os de Caldas",-46.56641005,-21.78736358,38198,57565,86972,110123,135627,152496
2918001,"Jequie",-40.08860733,-13.85566401,111801,100174,116868,144772,147202,151921
1702109,"Araguaina",-48.20870525,-7.19132894,10622,37780,72069,103315,113143,150520
3538006,"Pindamonhangaba",-45.46204885,-22.92666873,39142,48222,69562,102063,126026,147034
3507605,"Bragan_a Paulista",-46.54233337,-22.9568955,68469,63676,84048,108980,125031,146663
2207702,"Parnaiba",-41.77817059,-2.903360145,63496,79216,102181,127929,132282,145729
3522307,"Itapetininga",-48.0461429,-23.5878725,46428,63606,84384,105132,125559,144416
2900702,"Alagoinhas",-38.42261577,-12.13418259,74455,77963,102174,116894,130095,142160
3203205,"Linhares",-40.0653058,-19.39810593,66418,92329,123168,119690,112617,141254
1500107,"Abaetetuba",-48.88440382,-1.723469863,44584,57520,74545,99989,119152,141054
4118204,"Paranagua",-48.52473284,-25.5068415,38825,62327,81974,107675,127339,140450
3148004,"Patos de Minas",-46.51591568,-18.59257082,96693,76211,86121,102946,123881,138836
2903201,"Barreiras",-45.00416844,-12.14492489,36971,20864,41462,92640,131849,137428
3530706,"Mogi Gua_u",-46.94447409,-22.36572019,24398,42710,73549,107454,124228,137286
3168606,"Teofilo Otoni",-41.50963517,-17.86253981,127447,133017,128827,140833,129424,134733
3525300,"Jau",-48.55814139,-22.29579099,53536,56301,74011,94116,112104,131068
3152501,"Pouso Alegre",-45.93714428,-22.230303,27208,38062,57364,81836,106776,130586
2616407,"Vitoria de Santo Antao",-35.29386424,-8.118748,88993,80537,93203,106848,117609,130540
2606002,"Garanhuns",-36.49305028,-8.88890553,113392,71623,87038,103341,117749,129392
3507506,"Botucatu",-48.44128938,-22.8883815,43595,51954,64539,90761,108306,127370
2925303,"Porto Seguro",-39.06211352,-16.44905618,46213,33108,46304,34661,95721,126770
3504107,"Atibaia",-46.5550625,-23.116308,23051,36838,57807,86336,111300,126614
3105608,"Barbacena",-43.77619332,-21.22491538,66284,73898,86388,99954,114126,126325
4322400,"Uruguaiana",-57.08182491,-29.75982317,63713,74613,91497,117456,126936,125507
3170701,"Varginha",-45.43188614,-21.55708004,33221,38100,64906,88022,108998,123120
1502103,"Cameta",-49.49783017,-2.24683848,55648,59754,79317,85187,97624,120904
4101408,"Apucarana",-51.45998514,-23.55159298,66091,69302,80245,95064,107827,120884
3304201,"Resende",-44.44361342,-22.47118359,48797,66907,87335,91757,104549,119801
4127700,"Toledo",-46.37897266,-22.74339481,24959,68885,81282,94879,98200,119353
3503307,"Araras",-47.38582953,-22.35708652,38875,53422,65017,87459,104196,118898
4316808,"Santa Cruz do Sul",-52.42992859,-29.71976843,76854,86787,99636,117773,107632,118287
2103307,"Codo",-43.88608024,-4.4513375,71781,93003,108965,111967,111146,118072
4301602,"Bage",-54.10708329,-31.33050184,77392,90280,100135,118967,118767,116792
3118304,"Conselheiro Lafaiete",-43.78844466,-20.6608518,55419,50960,72438,89059,102836,116527
2306405,"Itapipoca",-39.58348158,-3.4994355,78770,94846,103823,77263,94369,116065
1501709,"Bragan_a",-46.76575421,-1.053523956,67938,61934,85087,97149,93779,113165
3511102,"Catanduva",-48.97587094,-21.1395385,48324,58251,72866,93317,105847,112843
3505500,"Barretos",-48.56737784,-20.55845551,58005,65574,72769,95414,103913,112102
3518404,"Guaratingueta",-45.19160013,-22.81742509,52044,68869,84879,102072,104219,112091
3300209,"Araruama",-42.34109602,-22.87743839,30904,40031,49822,59024,82803,112028
3201506,"Colatina",-40.63031755,-19.53627008,154966,105096,111676,106845,112711,111794
3551702,"Sertaozinho",-35.44175075,-6.750797546,26201,31066,51544,78776,94664,110094
3103504,"Araguari",-48.19160538,-18.64826953,51785,63368,83523,91283,101974,109779
3131703,"Itabira",-43.22395162,-19.63816949,36821,56352,71115,85606,98322,109551
3204906,"Sao Mateus",-39.8582006,-18.71844697,40786,41150,55083,73903,90460,109067
3506508,"Birigui",-50.33932852,-21.29239229,30835,34976,50889,75125,94300,108722
2924009,"Paulo Afonso",-38.21832897,-9.403331697,24781,46126,71131,85619,96499,108419
3554003,"Tatui",-47.84946403,-23.3485765,31174,39760,55489,76816,93430,107975
4302105,"Bento Gon_alves",-51.51556031,-29.16740193,33956,41979,58941,78643,91486,107341
3147907,"Passos",-46.61141257,-20.7192119,46907,54879,69054,84622,97211,106313
3545209,"Salto",-47.29241563,-23.20407381,15351,21772,42376,72333,93159,105569
1500602,"Altamira",-52.21437631,-3.20565951,12423,15345,46509,72408,77439,105030
4101507,"Arapongas",-51.43827973,-23.41351653,38067,51210,54688,64556,85428,104161
5003207,"Corumba",-57.64898546,-19.00637465,59556,81887,81145,88411,95701,103772
3534708,"Ourinhos",-49.86857984,-22.9772675,33763,49221,59739,76923,93868,103026
1303403,"Parintins",-56.73629215,-2.627052586,27506,38086,51391,58783,90150,102066
5008305,"Tres Lagoas",-51.71000063,-20.78867916,32023,55513,57904,68162,79059,101722
3169901,"Uba",-42.93678646,-21.11859695,49874,44503,53311,66511,85065,101466
3510500,"Caraguatatuba",-45.41081838,-23.6220065,9697,15073,33799,52878,78921,100899
3143906,"Muriae",-42.3610749,-21.13204679,52600,58153,69990,84585,92101,100861
2510808,"Patos",-37.27691334,-7.024491668,61178,46414,65160,81298,91761,100695
2101202,"Bacabal",-44.78155596,-4.23152463,108509,69578,81373,98793,91823,99960
1501303,"Barcarena",-48.62707289,-1.505767005,15261,17498,20021,45946,63268,99800
4127502,"Tibagi",-50.41147012,-24.51328807,40389,57624,75177,87722,87696,99177
1503606,"Itaituba",-55.99004886,-4.26372948,12431,12690,38584,116402,94750,97343
3134202,"Ituiutaba",-49.46223519,-18.97306768,70706,64656,74247,84577,89091,97159
1508100,"Tucurui",-49.66718437,-3.766889084,5609,9921,61140,81623,73798,97109
2305506,"Iguatu",-53.08600508,-24.71126184,50882,75682,82949,75649,85615,96523
4307005,"Erechim",-52.2758769,-27.63340581,65972,48677,61114,72318,90347,96105
3302205,"Itaperuna",-41.88620318,-21.21059108,78130,60622,63086,78000,86720,95876
3504008,"Assis",-50.41751004,-22.66283502,42666,57220,67357,85391,87251,95156
3300308,"Barra do Pirai",-43.82845245,-22.46959629,45367,59076,71931,79199,88503,94855
2803500,"Lagarto",-37.66635341,-10.91530097,47214,51131,58320,72144,83334,94852
3104007,"Araxa",-46.94000989,-19.5913298,28010,35676,53404,69911,78997,93683
5211503,"Itumbiara",-49.22087008,-18.41768247,48402,64162,78043,75161,81430,92942
1501808,"Breves",-50.4808948,-1.6907365,34018,38201,55749,72140,80158,92865
3138203,"Lavras",-44.99993111,-21.24287024,37262,44449,52715,65893,78772,92171
3526704,"Leme",-47.38870797,-22.185436,21389,31229,46257,68215,80757,91804
2925501,"Prado",-39.22923842,-17.32956399,61164,95148,104125,86940,90642,90967
2928703,"Santo Ant_nio de Jesus",-39.26113126,-12.96800777,33468,39726,51583,64331,77368,90949
3132404,"Itajuba",-45.4645825,-22.43060057,50248,51716,60593,75014,84135,90679
2932903,"Valen_a",-43.70484368,-22.24471943,39842,48038,66283,66931,77509,88729
5211909,"Jatai",-51.72081804,-17.88623233,27680,41364,53387,65957,75451,88048
3305208,"Sao Pedro da Aldeia",-42.10352867,-22.83720319,19396,27721,37502,50474,63227,88013
5102504,"Caceres",-57.67476231,-16.07409563,28078,85699,59057,77540,85857,87912
3522406,"Itapeva",-46.21955686,-22.76974039,33418,49122,65544,81858,82866,87765
3155702,"Rio Piracicaba",-43.17982375,-19.95494117,38996,53220,60820,73016,80828,87618
2612505,"Santa Cruz do Capibaribe",-36.20395002,-7.9551895,7591,11685,21112,38332,59048,87538
4104303,"Campo Mourao",-52.38111509,-24.0412232,141157,77118,75427,82318,80476,87287
2802908,"Itabaiana",-35.33753339,-7.3309315,44541,41640,52596,64838,76813,86981
5205109,"Catalao",-47.94770322,-18.16957336,25699,27338,39168,54525,64347,86597
3530805,"Moji Mirim",-46.95636713,-22.4326955,27406,36301,50634,64753,81467,86244
3113404,"Caratinga",-42.14370705,-19.78963492,106482,109772,110035,125686,77789,85322
3508504,"Ca_apava",-45.70773037,-23.10066375,23841,30712,51347,66058,76130,84844
3557105,"Votuporanga",-49.97467202,-20.41947,32566,39443,52281,66166,75641,84728
3147006,"Paracatu",-46.87541889,-17.21974191,25348,36821,49010,62774,75216,84687
3162500,"Sao Joao del Rei",-44.26097273,-21.13550897,57992,55230,64693,72747,78616,84404
4303004,"Cachoeira do Sul",-52.89341256,-30.04581998,84512,94261,93338,89148,87873,83827
3549102,"Sao Joao da Boa Vista",-46.79635078,-21.972011,38999,44471,55935,69148,77387,83661
2101400,"Balsas",-46.03899267,-7.53116999,16845,19385,23700,41648,60163,83537
3504503,"Avare",-48.92326319,-23.1031935,36192,37854,46918,61101,76472,82935
2101608,"Barra do Corda",-45.23901102,-5.5083395,45490,57839,76672,90820,78147,82692
3527207,"Lorena",-45.12424814,-22.73169303,32764,46463,57373,73146,77990,82553
3148103,"Patrocinio",-46.99743824,-18.94081296,31557,35578,44373,60753,73130,82541
4317103,"Sant'Ana do Livramento (Livramento)",-55.53481427,-30.88938401,55974,63388,68111,80252,90849,82513
3200607,"Aracruz",-40.27622338,-19.82327774,25193,26507,35797,52433,64637,81746
4118402,"Paranavai",-52.46240167,-23.08187948,63189,57387,65290,71052,75750,81595
2311306,"Quixada",-39.01174468,-4.9637,81242,98509,99284,72224,69654,80605
3139409,"Manhua_u",-42.03384829,-20.25868008,45674,48230,57727,75259,67123,79635
2917508,"Jacobina",-40.51301763,-11.18506216,74678,76519,103971,75518,76492,79285
2613909,"Serra Talhada",-38.29631495,-7.98799752,41761,55774,67166,72341,70912,79241
4108403,"Francisco Beltrao",-53.05613572,-26.07845,55496,36807,48762,61272,67132,78957
4310207,"Ijui",-53.91806684,-28.38853654,63350,52738,70932,75157,78461,78920
2806701,"Sao Cristovao",-37.20949878,-11.01367686,20032,20409,24134,47558,64647,78876
3550605,"Sao Roque",-47.13542301,-23.530359,28778,37049,49539,63900,66637,78873
3555406,"Ubatuba",-45.07209148,-23.43596498,10182,15203,27161,47398,66861,78870
2911709,"Guanambi",-42.77856197,-14.22531503,28508,31174,45520,65592,71728,78801
1200203,"Cruzeiro do Sul",-72.67253132,-7.630690005,32066,43584,50477,50748,67441,78444
2108603,"Pinheiro",-45.0839266,-2.5227405,49013,53831,68640,82432,68030,78147
5006606,"Ponta Pora",-55.71085018,-22.48618708,30262,33798,38070,55541,60916,77866
4300406,"Alegrete",-55.79587015,-29.78204321,54627,56553,69472,78918,84338,77673
3306008,"Tres Rios",-43.21160944,-22.117448,44565,55871,71172,81248,71976,77503
2601102,"Araripina",-40.50246058,-7.5781415,34750,38919,47908,60585,70898,77363
2930501,"Serrinha",-35.50134323,-6.277091526,56538,47172,57477,76013,83206,77285
3513405,"Cruzeiro",-44.96173196,-22.57774988,31081,45652,57999,68643,73492,77070
3529302,"Matao",-48.3677477,-21.60299451,22135,21953,38125,63613,71753,76799
1709500,"Gurupi",-49.07147747,-11.72977232,11915,24660,38658,56752,65034,76765
2606408,"Gravata",-35.57149239,-8.2059995,52894,49366,52501,61485,67273,76669
4317509,"Santo angelo",-54.2641428,-28.30193787,76255,80754,93674,76592,76745,76304
1301209,"Coari",-63.14218398,-4.084219159,23093,27636,42612,38678,67096,75909
2606200,"Goiana",-34.9983763,-7.559231855,59122,51588,57809,64150,71177,75648
3506102,"Bebedouro",-48.47736217,-20.94981552,31496,37816,46029,67763,74815,75044
2604007,"Carpina",-35.25806061,-7.846886716,41340,45790,57346,66078,63811,74851
2302800,"Caninde",-39.31034295,-4.35534429,36967,50652,58180,61827,69601,74486
2930105,"Senhor do Bonfim (Bonfim)",-40.18998454,-10.45677149,34306,46665,63826,83421,67723,74431
3305505,"Saquarema",-42.49669405,-22.93112742,19865,24378,28194,37888,52461,74221
3120904,"Curvelo",-44.42839897,-18.75548072,51826,45423,50770,59015,67512,74184
3550704,"Sao Sebastiao",-36.5510919,-9.931657389,7421,12023,19007,33890,58038,73833
3101607,"Alfenas",-45.9489182,-21.42817812,25852,28331,38270,52700,66957,73722
3145208,"Nova Serrana",-44.98557874,-19.87586738,5306,6538,9273,17913,37447,73719
2208007,"Picos",-41.46882671,-7.081373912,50102,52757,71018,78409,68974,73417
3141801,"Minas Novas",-42.59675871,-17.21545816,63722,54771,75529,84343,73895,73333
2103208,"Chapadinha",-43.36112078,-3.74002452,39742,44997,52638,56852,61322,73281
2304103,"Crateus",-40.66840013,-5.176950551,41302,62011,65865,66652,70898,72853
3169307,"Tres Cora__es",-45.25493687,-21.69596578,29787,35180,44382,57045,65291,72796
2601706,"Belo Jardim",-36.42003508,-8.335295439,36629,45361,51711,60658,68698,72412
4118501,"Pato Branco",-52.677362,-26.22995851,51581,33808,45937,55675,62234,72373
3171303,"Vi_osa",-36.2483932,-9.377054355,26689,22252,38655,51568,64854,72244
2311405,"Quixeramobim",-39.29435423,-5.198404837,52118,66740,66159,59100,59235,71912
3306107,"Valen_a (Marques de Valen_a)",-39.07235025,-13.37034151,42772,48313,53577,60805,66308,71894
3524303,"Jaboticabal",-48.32034975,-21.2544715,33362,38779,46985,59133,67408,71667
3527108,"Lins",-49.75142339,-21.6723465,47219,45555,51027,58606,65952,71493
4311403,"Lajeado",-48.35850395,-9.744682436,56170,56992,63739,63944,64133,71481
3519709,"Ibiuna",-47.22049119,-23.6526325,23465,24391,31829,49187,64384,71228
4203006,"Ca_ador",-51.01903476,-26.77534767,22790,32892,39268,52668,63322,70735
5204508,"Caldas Novas",-48.62119747,-17.74353887,6233,8630,11279,24159,49660,70463
3146107,"Ouro Preto",-43.50644752,-20.38677637,33626,46165,53410,62514,66277,70227
3539301,"Pirassununga",-47.42517288,-21.99404929,27240,37577,44978,56746,64864,70138
4105508,"Cianorte",-52.60915089,-23.65381315,53658,52532,48797,49846,57401,69962
1504703,"Moju",-48.76719913,-1.885889,15881,18035,28628,44424,52941,69921
2311801,"Russas",-37.9754313,-4.939737815,25863,34239,38517,46566,57320,69892
3115300,"Cataguases",-42.69208461,-21.38924842,41879,43846,49274,58138,63980,69810
2301109,"Aracati",-37.7727526,-4.56706647,40908,50120,61142,60687,61187,69167
2601201,"Arcoverde",-37.05650556,-8.4239405,24087,40162,47208,55776,61600,69157
2313401,"Tiangua",-40.99170562,-3.722674,21798,26200,34285,44005,58069,68901
4204301,"Concordia",-52.02397107,-27.23365878,45533,45465,54860,64298,63058,68627
4317202,"Santa Rosa",-54.4782241,-27.8667498,45871,39550,52231,58287,65016,68595
3522604,"Itapira",-46.82124801,-22.4360055,35969,39036,47929,56586,63377,68365
2916401,"Itapetinga",-40.24738091,-15.24616719,38362,46112,47417,53476,57931,68314
2914505,"Irara",-38.77165078,-12.03370396,45113,53176,57373,61200,62814,67182
4104907,"Castro",-50.00281113,-24.7954175,32724,37536,49816,64058,63581,67082
3135100,"Janauba",-43.30768294,-15.79902846,22945,31587,43028,53104,61651,66803
2906006,"Campo Formoso",-40.31882099,-10.50566155,35614,37263,56700,62104,61942,66638
2914604,"Irece",-41.85886048,-11.30337962,42799,62313,87942,50908,57436,66404
3530508,"Mococa",-47.00717098,-21.46899051,31554,34819,47310,58374,65574,66303
4322608,"Venancio Aires",-52.19188024,-29.61165289,39931,43734,48282,55482,61234,65964
3501905,"Amparo",-37.06477525,-7.567211522,28412,31908,41598,50797,60404,65836
2516201,"Sousa",-38.22960508,-6.763378005,62948,62049,72883,79135,62635,65807
3135209,"Januaria",-44.35980533,-15.48787281,59943,62546,71941,87163,63605,65464
2305407,"Ico",-38.86308518,-6.403031252,34395,41569,53344,60466,62521,65453
3126109,"Formiga",-45.42642818,-20.46488355,40010,46864,52395,61755,62907,65064
3164704,"Sao Sebastiao do Paraiso",-46.98647183,-20.91806545,24940,28538,39564,49053,58335,65034
2108207,"Pedreiras",-44.60373488,-4.569350688,99459,68622,86349,83042,63840,64816
3515509,"Fernandopolis",-50.24874843,-20.28238299,39891,39050,46989,56144,61647,64707
2904605,"Brumado",-41.6670695,-14.20543824,42970,38304,46757,57176,61670,64550
2802106,"Estancia",-37.44001085,-11.26794865,23973,28045,36833,53869,59002,64464
2609907,"Ouricuri",-40.08146258,-7.883151975,43003,50167,63948,73526,56733,64335
4307906,"Farroupilha",-51.34834957,-29.22367919,16106,19318,28995,45364,55308,63641
1502202,"Capanema",-53.8001787,-25.68297742,34999,26650,40104,51166,57119,63628
2605202,"Escada",-35.23615742,-8.36252199,39001,43372,53172,55841,57341,63535
2903904,"Bom Jesus da Lapa",-43.41714164,-13.25411437,23055,40776,69202,48910,54421,63508
3555000,"Tupa",-50.51400642,-21.93482151,55769,52537,56588,61302,63333,63492
1505304,"Oriximina",-55.86279952,-1.7637535,15072,18994,29594,41154,48332,62963
4306106,"Cruz Alta",-53.60524076,-28.64244661,49441,57930,66171,68793,71254,62825
2610905,"Pesqueira",-36.69551472,-8.355456108,44561,49687,52281,57622,57721,62793
4303509,"Camaqua",-51.81460091,-30.85070439,42577,57288,57356,61704,60383,62759
2402006,"Caico",-37.09648877,-6.459138831,27447,36521,40028,50640,57002,62727
2709301,"Uniao dos Palmares",-36.03314284,-9.159524117,46298,51532,52711,57425,58620,62401
2105401,"Itapecuru Mirim",-44.35426339,-3.39904548,32920,31589,44118,42853,42772,62123
2308708,"Morada Nova",-38.36490735,-5.096952,38006,53552,64536,58912,64400,62086
2908408,"Concei_ao do Coite",-39.28168418,-11.56182585,32168,35111,41427,52338,56317,62042
2104800,"Grajau",-46.14239564,-5.818548431,25668,33130,57935,54403,47155,61903
2208403,"Piripiri",-41.77850485,-4.276068693,29525,43227,55093,63162,60154,61840
4318002,"Sao Borja",-56.00102915,-28.66283753,50009,52392,58202,63783,64869,61662
2103604,"Coroata",-44.1255992,-4.128976,64865,65797,66916,70360,55676,61653
2914703,"Itaberaba",-40.30699492,-12.53225409,38685,33629,45243,53742,58943,61623
3526803,"Len_ois Paulista",-48.79868197,-22.597507,16428,22423,35007,46246,55042,61454
1304203,"Tefe",-64.70841966,-3.348372494,16343,19173,30743,53970,64457,61399
4322509,"Vacaria",-50.93659916,-28.5023544,57360,57107,58563,58610,57341,61345
4214805,"Rio do Sul",-49.64323753,-27.21790323,40291,27538,36240,45668,51650,61196
4318309,"Sao Gabriel",-41.8742692,-11.22670733,46304,51934,56741,59040,62249,60508
2706703,"Penedo",-36.58046021,-10.2961103,25007,33142,36672,52245,56993,60389
2302602,"Camocim",-40.84752774,-2.900966575,28537,35736,46001,51035,55448,60163
5208608,"Goianesia",-49.11581015,-15.32228875,22893,33546,32887,43535,49160,59545
2610004,"Palmares",-35.58833599,-8.6790825,40023,50995,58431,57731,55790,59524
2914000,"Ipira",-39.74070848,-12.16028688,48017,58860,69762,62672,61746,59352
4304705,"Carazinho",-52.79189739,-28.28651059,35717,42504,53696,58767,59894,59301
2601904,"Bezerros",-35.75448795,-8.2353595,53900,44289,48825,52134,57371,58675
2909802,"Cruz das Almas",-39.10073614,-12.66378621,23941,28814,37347,45858,53049,58584
3537305,"Penapolis",-50.07303628,-21.41838301,28417,34263,40322,48285,54635,58529
2614501,"Surubim",-35.7567841,-7.835157057,41795,52275,61023,67572,50331,58444
2503704,"Cajazeiras",-38.56053037,-6.8904645,39104,41693,46439,51273,54715,58437
1503309,"Igarape-Miri",-48.96229947,-1.983116,24296,31228,39265,41843,52604,58023
2928604,"Santo Amaro",-38.70903146,-12.54914011,98887,46411,57931,54160,58414,57811
2203909,"Floriano",-43.02064474,-6.769672434,24055,35850,43137,51494,54591,57707
2300200,"Acarau",-40.11824147,-2.88531054,55053,62857,71889,45505,48968,57542
3152105,"Ponte Nova",-42.90968427,-20.41664342,65428,45694,50083,56678,55303,57361
1508308,"Viseu",-46.13876522,-1.203278527,24610,33014,57017,63173,51090,56681
2612208,"Salgueiro",-39.12085098,-8.070677522,26000,31314,40440,47211,51571,56641
1508001,"Tome-A_u",-48.14689659,-2.419366855,7490,24132,40337,41403,47273,56514
3505906,"Batatais",-47.58610673,-20.8919295,26666,29262,37286,44106,51112,56481
5101803,"Barra do Gar_as",-52.26032976,-15.88871145,15151,26570,43607,45651,52092,56423
2910701,"Euclides da Cunha",-39.01424873,-10.50581806,31486,41588,50409,51818,53885,56312
4110706,"Irati",-52.89501136,-26.65722694,30817,36471,42234,47854,52352,56288
2307601,"Limoeiro do Norte",-38.09909487,-5.15023902,18481,25623,32757,41700,49620,56281
2313302,"Taua",-40.29262466,-6.00299894,33620,44855,46673,51339,51948,55755
3304300,"Rio Bonito",-42.62599784,-22.7112715,27694,34434,40036,45161,49691,55586
2608909,"Limoeiro",-35.45526105,-7.880198,95596,57278,57174,54860,56322,55574
1504802,"Monte Alegre",-54.07337473,-2.003328,19264,28379,37899,46951,61334,55459
2506301,"Guarabira",-35.48996498,-6.852715,38547,34732,41817,48654,51482,55340
3502101,"Andradina",-51.37884779,-20.90146351,37842,51688,47658,52409,55161,55317
2101707,"Barreirinhas",-42.82780251,-2.750085949,20239,24969,26585,29640,39669,54991
2314102,"Vi_osa do Ceara",-41.09162908,-3.566012753,26241,33859,37196,40865,45427,54961
3300803,"Cachoeiras de Macacu",-42.66316436,-22.46757087,27064,33793,35867,40208,48543,54370
3542602,"Registro",-47.84105475,-24.49425143,15032,24281,39106,48953,53752,54279
3140001,"Mariana",-43.41614041,-20.37449323,32516,24786,29404,38180,46710,54179
3553708,"Taquaritinga",-48.50674218,-21.410008,24040,27518,35902,46922,52065,53985
3161106,"Sao Francisco",-38.09714123,-6.619279982,45305,58254,61883,72481,51497,53898
3169406,"Tres Pontas",-45.5154748,-21.36876992,34344,27514,37732,45832,51024,53825
2615300,"Timbauba",-35.31877212,-7.511745674,49754,52077,54504,57256,56906,53823
3530300,"Mirassol",-49.51213922,-20.8170045,19919,20579,28313,39286,48327,53809
1500206,"Acara",-48.20045643,-1.9634365,17773,24487,35269,37184,52126,53605
3127107,"Frutal",-48.93915371,-20.02589788,28803,30669,34273,41424,46566,53474
3151206,"Pirapora",-44.95106538,-17.3495821,22876,20282,32673,46351,50300,53379
4304507,"Cangu_u",-52.67628583,-31.39385952,57538,62451,55825,50367,51447,53268
2400208,"A_u",-36.91792322,-5.571945999,26432,25038,34393,43591,47904,53245
2613008,"Sao Bento do Una",-36.44629836,-8.519867521,57338,33514,37585,42236,45360,53232
3519600,"Ibitinga",-48.82769469,-21.75708298,20550,23968,29140,38242,46620,53166
2903706,"Boa Nova",-40.20052189,-14.36260794,41951,48540,54466,52226,66136,53152
5213103,"Mineiros",-52.55466719,-17.56616757,11354,15182,21698,31144,39024,52964
3132701,"Itambacuri",-41.68226738,-18.03432996,94216,84716,63089,63089,52238,52919
4203808,"Canoinhas",-50.39784871,-26.17880701,39232,35458,47272,55229,51631,52775
4128203,"Uniao da Vitoria",-51.09060952,-26.2284345,30592,29750,39631,44008,48522,52753
1500404,"Alenquer",-54.74086235,-1.951397505,27638,35021,44539,52856,41784,52714
2112506,"Tutoia",-42.27684721,-2.763550197,2676,32832,39611,43313,37728,52711
2304707,"Granja",-40.82993899,-3.118952156,27093,36053,39657,41505,48484,52670
2302404,"Boa Viagem",-39.73328234,-5.12574387,31095,41895,46562,47918,50306,52521
2931905,"Tucano",-38.785948,-10.96430017,33982,31753,36488,46618,50948,52391
2921500,"Monte Santo",-39.33270595,-10.44015774,26896,36130,42182,51280,54552,52360
3537800,"Piedade",-47.41801515,-23.71420222,21728,27640,35898,43581,50131,52214
1505809,"Portel",-50.82249044,-1.936451,17619,16411,43158,29452,38043,52166
2702306,"Coruripe",-36.17607831,-10.12654725,19898,27225,41656,49240,48846,52160
2602803,"Buique",-37.15698811,-8.622059041,41263,33405,36363,38123,44169,51990
3549706,"Sao Jose do Rio Pardo",-46.88826589,-21.5961025,31159,31662,36156,44579,50077,51910
1302900,"Maues",-57.71503439,-3.386427926,18744,24095,30014,30499,40036,51847
2902104,"Araci",-38.96095816,-11.33572788,17456,23661,32225,45341,47584,51636
1507607,"Sao Miguel do Guama (Guama)",-47.48240894,-1.617135914,23437,17452,26679,32933,41366,51527
3111200,"Campo Belo",-45.27586136,-20.89531625,30561,28619,37336,44527,49187,51509
2313500,"Trairi",-39.27223187,-3.264420169,22432,26423,29916,36344,44527,51432
3540705,"Porto Ferreira",-47.48140964,-21.8583625,13220,19216,27989,38492,47437,51407
2610608,"Paudalho",-35.17915106,-7.897135005,41293,32741,36776,39608,45138,51374
1503705,"Itupiranga",-49.32442586,-5.128837026,3976,5346,15641,37011,49655,51258
2300309,"Acopiara",-39.45570528,-6.092761995,32146,48292,52031,49259,47137,51171
3138401,"Leopoldina",-42.64184413,-21.53072936,45180,41306,42118,46442,50097,51136
2907509,"Catu",-38.3762943,-12.35518656,21450,27893,37428,43430,46731,51075
2917607,"Jaguaquara",-39.97025518,-13.53069863,24146,25973,32771,39372,46621,51019
2701407,"Campo Alegre",-49.26334448,-26.19065928,6753,6950,17570,36770,41028,50831
2515302,"Sape",-35.23043262,-7.087111,48596,45345,50898,58515,47353,50151
3533908,"Olimpia",-48.91349173,-20.73728399,28094,29079,31791,42907,46013,49792
3128709,"Guaxupe",-46.71353723,-21.30378146,21852,24273,30113,39611,47036,49491
2112803,"Viana",-40.49562434,-20.39086251,31429,36633,43482,42161,44190,49452
2112704,"Vargem Grande",-43.91666449,-3.541896,35114,23431,33370,32897,34707,49415
2902708,"Barra",-43.14363855,-11.08895482,35938,46330,51449,39806,44203,49342
2302206,"Beberibe",-38.12327304,-4.174763221,25470,29373,35474,36801,42343,49334
1505106,"obidos",-55.51632351,-1.909235496,22285,26426,38002,42307,46490,49254
1718204,"Porto Nacional",-48.41215346,-10.70856992,22872,31517,39320,43224,44991,49143
4317400,"Santiago",-54.86907585,-29.19146017,34420,41054,46627,51755,52138,49082
3540606,"Porto Feliz",-47.52459657,-23.21441227,21590,22152,27123,36936,45514,48914
4120606,"Prudentopolis",-50.98357509,-25.2160205,30182,34314,39706,47014,46346,48793
3510401,"Capivari",-47.50220615,-22.99954891,19535,18986,25173,34220,41468,48573
3118007,"Congonhas",-43.85689265,-20.50464279,14675,20374,30776,35364,41256,48550
2306306,"Itapage",-39.58353324,-3.68567311,29532,33778,40664,33645,41093,48366
3507001,"Boituva",-47.6714735,-23.281944,9974,8976,12577,23140,34368,48323
2926608,"Ribeira do Pombal",-38.53609879,-10.83627807,30383,38968,45684,42509,46270,48271
2702405,"Delmiro Gouveia",-37.99923349,-9.384574447,11077,14680,26765,41214,42995,48090
2807402,"Tobias Barreto",-37.9990007,-11.18432987,20042,24832,30787,37577,43172,48039
3523206,"Itarare",-49.33611971,-24.11213796,23411,30507,37765,44167,46554,47939
1508209,"Vigia",-48.14149859,-0.855532574,29249,19261,24817,37418,40176,47902
2928802,"Santo Estevao",-39.2531902,-12.42889323,35787,25410,30869,37007,41145,47901
3509700,"Campos do Jordao",-45.5892017,-22.74009191,16450,18706,26107,37135,44252,47824
2905206,"Caetite",-42.48571145,-14.06675432,31236,40200,45319,40380,45090,47524
2511301,"Pianco",-37.926519,-7.192569876,39349,53116,52469,52344,48987,47418
4219309,"Videira",-51.15170528,-27.00612907,26610,21864,28151,36206,41589,47204
1503903,"Juruti",-56.09499769,-2.155252995,15724,18684,22600,23262,31198,47123
2919801,"Macaubas",-42.69466575,-13.02367167,41813,26639,31104,34548,41806,47067
3524808,"Jales",-50.5503562,-20.26785305,36298,38436,38590,45956,46186,47012
1302702,"Manicore",-61.29924841,-5.813205261,19157,21100,30063,37857,38038,47011
2912103,"Ibicarai",-39.5915412,-14.86576314,59678,55779,62424,56676,52670,46959
4106407,"Cornelio Procopio",-50.65148448,-23.1832575,45341,49796,42581,46644,46861,46925
2103406,"Coelho Neto",-43.01401362,-4.2547375,25920,16660,24462,39669,42214,46792
3531308,"Monte Alto",-48.49665126,-21.263864,16612,21520,31221,39742,43613,46647
3107307,"Bocaiuva",-43.81444357,-17.11210473,39567,35342,40463,47045,42806,46595
3549409,"Sao Joaquim da Barra",-47.86326807,-20.58316556,20080,24359,29297,35964,41587,46524
3160702,"Santos Dumont",-43.55375217,-21.45753199,40402,37985,40005,44965,46789,46289
3510203,"Capao Bonito",-48.35143452,-24.00680097,24155,30326,45526,52612,46732,46178
2105708,"Lago da Pedra",-45.12589136,-4.564744515,35172,43525,44810,46877,40405,46108
3203908,"Nova Venecia",-40.40154788,-18.712906,43001,47480,45667,47624,43015,46020
3137205,"Lagoa da Prata",-45.54169203,-20.02376533,13874,18275,24258,30816,38758,45999
3121605,"Diamantina",-43.59445682,-18.24209272,52250,29652,35926,44299,44259,45884
3143104,"Monte Carmelo",-47.49597243,-18.72903844,27345,20417,26864,34705,43899,45799
3107406,"Bom Despacho",-45.2541152,-19.73759633,23580,27298,29353,35330,39943,45626
5001102,"Aquidauana",-55.79061609,-20.47465435,33034,28723,34482,39342,43440,45623
5006200,"Nova Andradina",-53.35157381,-22.24875931,6472,12625,21668,29848,35381,45599
2933604,"Xique-Xique",-42.725508,-10.82497442,22495,30879,42318,40373,44718,45562
1502707,"Concei_ao do Araguaia",-49.26450081,-8.26486353,10505,28953,111551,54900,43386,45530
2616209,"Vertentes",-35.98930593,-7.905742604,33584,36961,40762,39770,39674,45521
2602100,"Bom Conselho",-36.67931439,-9.163382985,61900,43933,43649,41177,42085,45506
3136306,"Joao Pinheiro",-46.17546355,-17.74185294,27883,41502,45851,49956,41368,45260
2602605,"Brejo da Madre de Deus",-36.37039144,-8.1489565,34741,25682,24772,31206,38109,45192
2302503,"Brejo Santo",-38.98551387,-7.491638009,18647,21752,26502,33721,38484,45190
2202208,"Campo Maior",-42.1667446,-4.829113927,56627,61549,67700,72258,43126,45180
4114500,"Manoel Ribas",-51.6690786,-24.52173088,54994,80150,78998,57520,45336,44976
2708006,"Santana do Ipanema",-37.24540702,-9.372284363,34542,34225,40360,36088,41485,44949
2201200,"Barras",-42.29533986,-4.243093354,31735,38175,43677,50151,40891,44850
2925105,"Po__es",-40.36512729,-14.52232454,71765,39448,45509,37834,44213,44760
2109106,"Presidente Dutra",-44.49291886,-5.282374258,29901,30756,39763,42721,39541,44719
2611804,"Ribeirao",-35.37613082,-8.51111604,25358,31009,36343,41022,41449,44445
2913903,"Ipiau",-39.73565418,-14.13747367,47332,27622,39079,45245,43621,44430
2919702,"Macarani",-40.42204411,-15.56731615,45803,43166,38557,39106,38843,44418
2700409,"Atalaia",-52.05570114,-23.1515871,33717,40075,41762,38563,40552,44379
2308104,"Mauriti",-38.77279544,-7.387398,25061,31508,35755,37153,42399,44217
2312304,"Sao Benedito",-40.86448988,-4.04472699,35132,41076,43756,36700,39894,44186
1301704,"Humaita",-53.97650557,-27.56148982,14115,14877,24322,38792,32796,44116
3546405,"Santa Cruz do Rio Pardo",-49.62460887,-22.9057225,38046,34412,33611,39544,40919,43929
3514403,"Dracena",-51.53404966,-21.48613754,32537,35343,35971,39693,40500,43263
5218508,"Quirinopolis",-50.45226252,-18.45150736,25598,37917,36243,34276,36512,43243
3528403,"Mairinque",-47.18448263,-23.547458,11621,18858,30831,43205,39975,43225
3516705,"Gar_a",-49.65652994,-22.21070949,38094,37358,39939,41492,43162,43124
4318804,"Sao Louren_o do Sul",-51.97691524,-31.36402372,33447,39886,41603,41420,43691,43114
4117602,"Palmas",-48.35104371,-10.16325333,19919,25811,30876,35262,34819,42887
2920601,"Maragogipe",-38.91888144,-12.77511992,39233,41038,41260,38811,40314,42815
2917201,"Itua_u",-41.31098153,-13.80740715,32393,33977,33596,39168,41576,42812
2312007,"Santa Quiteria",-40.20946286,-3.459775342,28485,42778,52267,49343,42375,42759
2308500,"Momba_a",-39.62440525,-5.74700454,32446,40789,46454,40883,41215,42707
2919504,"Livramento de Nossa Senhora (Livramento do Brumado)",-41.84038728,-13.64950091,27113,25263,25282,34345,38025,42705
4124103,"Santo Ant_nio da Platina",-50.0773459,-23.29704883,31460,38627,36781,38714,39943,42688
2403103,"Currais Novos",-36.51621922,-6.264672219,21300,26179,34975,40227,40791,42668
2100907,"Araioses",-41.89913945,-2.889255846,31115,39561,44353,44029,34906,42600
5214606,"Niquelandia",-48.45858515,-14.46911014,15501,23736,33485,40751,38573,42380
5218003,"Porangatu",-49.14622605,-13.44218595,19274,25874,34874,41086,39593,42356
3535507,"Paragua_u Paulista",-50.57502853,-22.41771102,23752,21892,23598,33840,39618,42281
5007901,"Sidrolandia",-54.96603014,-20.93105446,7905,9589,12847,16340,23483,42076
2310506,"Pedra Branca",-38.07224631,-7.426564426,23799,31558,35755,38800,40742,41942
3515186,"Espirito Santo do Pinhal (Pinhal)",-46.74551429,-22.1970535,25255,27299,33355,37178,40480,41919
5211800,"Jaragua",-49.33014393,-15.75311378,27015,42103,36561,28184,33284,41888
2929909,"Seabra",-41.76820124,-12.41876319,34808,21881,23241,37859,39422,41815
3163706,"Sao Louren_o",-45.0533731,-22.11776867,15588,19269,24029,29870,36927,41664
1100106,"Guajara-Mirim",-65.32395182,-10.77388374,19734,27016,34755,32583,38045,41646
3508405,"Cabreuva",-47.13365837,-23.31267439,6444,7679,11709,18814,33100,41643
3536703,"Pederneiras",-48.77968096,-22.3554915,19398,18399,26105,32021,36614,41530
5213806,"Morrinhos",-40.12417889,-3.228830534,23015,31672,32123,32592,36990,41457
3541307,"Presidente Epitacio",-52.11527583,-21.768782,18371,26428,29608,34851,39298,41324
4125605,"Sao Mateus do Sul",-50.39062425,-25.86959951,19097,23635,26974,33138,36569,41257
3303708,"Paraiba do Sul",-43.28954446,-22.16198154,25508,26736,29238,33922,37410,41088
3554805,"Tremembe",-45.55074688,-22.96041521,8881,11689,18094,27572,34823,40985
4313508,"Osorio",-50.26679781,-29.89269708,53268,55569,60506,36857,36131,40941
3144300,"Nanuque",-40.35173883,-17.83899335,50458,48903,42732,43090,41619,40816
2601409,"Barreiros",-35.19908599,-8.81413799,35421,28892,32445,40569,39139,40720
2110500,"Sao Bento",-44.82834518,-2.6970075,36504,18743,23509,28036,31819,40717
2929800,"Saude",-40.41855074,-10.94110517,23957,29785,38996,41855,37144,40655
3304706,"Santo Ant_nio de Padua",-42.17791156,-21.53597712,32289,31151,33513,39600,38692,40569
2928109,"Santa Maria da Vitoria",-44.19830887,-13.39354525,20650,31216,38750,41528,41261,40316
2614204,"Sirinhaem",-35.11640535,-8.5933695,20885,24806,29061,33258,33046,40306
2305803,"Ipu",-40.71872614,-4.313431685,36384,42412,44187,35689,39078,40300
3540200,"Pontal",-48.0378373,-21.02571,13208,13731,16742,22805,29681,40245
5006309,"Paranaiba",-51.18870771,-19.67737173,18290,31038,36896,37654,38406,40174
3545308,"Salto de Pirapora",-47.57468012,-23.64913222,6041,9001,14686,25344,35072,40141
3522703,"Itapolis",-48.81339199,-21.59470399,21414,20711,25969,33053,37750,40064
2600500,"aguas Belas",-37.12195717,-9.1145895,47141,25581,36651,38355,36641,40007
2910503,"Entre Rios",-52.56253397,-26.7236211,21492,19188,22541,27718,37513,39883
3534302,"Orlandia",-47.88638382,-20.7204215,12067,18275,25530,31319,36004,39781
4316402,"Rosario do Sul",-54.94576086,-30.24403324,29296,37788,39260,40464,41058,39751
3511508,"Cerquilho",-47.73753133,-23.1686725,5908,6960,12345,20048,29508,39649
2109601,"Rosario",-44.2475186,-2.941543035,31825,22041,28325,40916,33665,39582
3145604,"Oliveira",-44.82641087,-20.69751578,28499,26502,29586,32222,37250,39469
3556404,"Vargem Grande do Sul",-46.89560891,-21.835866,11744,13369,20363,30952,36302,39266
2112308,"Tuntum",-44.64901215,-5.24965554,27250,30269,34710,36006,35411,39257
4304408,"Canela",-50.81486735,-29.35797185,12355,13909,19274,24801,33625,39238
3157005,"Salinas",-42.29350647,-16.16985573,58291,45925,48809,50849,36720,39182
2103505,"Colinas",-51.86857555,-29.39253687,25633,22824,31361,35164,35803,39167
2926004,"Remanso",-42.07966754,-9.623906789,27949,23588,28936,34381,36257,39149
4111803,"Jacarezinho",-49.97857253,-23.16011647,42863,38741,38926,40858,39625,39093
2109809,"Santa Helena",-53.61998787,-26.93984392,9977,16428,33023,26434,30860,39060
4306601,"Dom Pedrito",-54.67413018,-30.98126706,28266,32801,35149,38054,40410,38916
3551603,"Serrana",-46.70179138,-22.61269352,7357,8995,14336,23219,32603,38891
2803005,"Itabaianinha",-37.78741114,-11.27678544,19906,21686,26460,30885,35454,38886
2901403,"Angical",-44.69582348,-12.00668277,27894,26933,32503,39984,39982,38781
3101706,"Almenara",-40.69765118,-16.18061617,39465,40463,38825,45416,35385,38779
2807105,"Simao Dias",-37.80943058,-10.7380618,27584,27904,27038,32196,36813,38724
2908705,"Condeuba",-41.97080954,-14.89041036,43153,45976,52681,42687,43285,38714
3524105,"Ituverava",-47.78041566,-20.33628797,26034,27380,27496,33003,36268,38699
3139003,"Machado",-45.92176408,-21.6783539,21170,21556,26729,30709,34877,38684
3107109,"Boa Esperan_a",-52.79277746,-24.23949316,21656,20518,25486,33015,37074,38509
2314003,"Varzea Alegre",-39.298933,-6.791845856,26321,27423,29790,31331,34844,38442
3550100,"Sao Manuel",-48.56876328,-22.73645998,28687,27402,27546,35438,36545,38390
3546603,"Santa Fe do Sul",-50.92677742,-20.21169316,46304,36168,32474,33695,35839,38365
4310603,"Itaqui",-56.5571335,-29.1286369,23311,28402,33311,40057,39770,38166
4313904,"Panambi",-53.50026517,-28.29273054,17874,16193,23871,29379,32610,38068
1200450,"Sena Madureira",-67.74317236,-10.14817359,24261,22470,23558,24197,29420,37993
3172004,"Visconde do Rio Branco",-42.83938939,-21.01198958,24642,21818,26257,28451,32598,37952
3541505,"Presidente Venceslau",-51.84025881,-21.87593951,21323,25976,30160,36120,37347,37915
2100600,"Amarante do Maranhao",-46.75063755,-5.557662,9373,13831,17007,23102,31292,37894
2305902,"Ipueiras",-40.71569651,-4.543785495,36384,30332,33324,35099,38219,37874
2604205,"Catende",-35.72166666,-8.6703075,30312,28198,28153,31519,31257,37830
2602209,"Bom Jardim",-45.60188939,-3.544160978,12738,35249,34915,36798,37013,37828
3159605,"Santa Rita do Sapucai",-45.70398819,-22.25332983,21189,18920,22212,26317,31264,37784
2305001,"Guaraciaba do Norte (Inhu_u)",-40.75263318,-4.162451067,28664,32140,36971,30312,35037,37777
2203701,"Esperantina",-42.23536453,-3.895604531,17207,24582,29122,35806,34094,37765
3525102,"Jardinopolis",-52.85889926,-26.7205694,16396,16992,19677,24123,30729,37725
2918100,"Jeremoabo",-38.35181915,-10.06224241,39560,28625,33436,38449,34916,37661
3152204,"Porteirinha",-43.02852265,-15.74683773,41261,41741,46044,53906,37890,37638
4315701,"Rio Pardo",-52.37901825,-29.98562588,47908,53699,50130,42924,37783,37602
3303807,"Paraty",-44.7108585,-23.21941361,12085,15934,20599,23928,29544,37575
1302405,"Labrea",-64.79477303,-7.261946553,16515,16737,22019,33052,28956,37574
2602308,"Bonito",-47.30589182,-1.367474357,43048,33438,33081,35043,37750,37570
3304805,"Sao Fidelis",-41.75559231,-21.64362655,38715,35143,34976,34581,36789,37553
2207900,"Pedro II",-41.45855993,-4.427055265,25922,31041,38811,43817,36201,37500
2930154,"Sento Se",-43.58073074,-13.56446599,18284,27419,31683,28387,32461,37431
1506203,"Salinopolis",-47.35312026,-0.623638,18494,9651,14358,22670,33449,37430
2600708,"Alian_a",-35.2285015,-7.604729809,31578,35057,37648,37455,37189,37414
3517406,"Guaira",-54.24675772,-24.08527548,21367,26883,25667,31071,34610,37412
5005400,"Maracaju",-55.15713957,-21.62361038,6176,7319,13604,22999,26219,37407
3102605,"Andradas",-46.575583,-22.07280734,18934,20009,24205,28377,32968,37302
1303809,"Sao Gabriel da Cachoeira (Uaupes)",-67.0836429,-0.136462788,12172,13423,19571,23140,29947,37300
2927002,"Rio Real",-37.93357778,-11.48493543,13631,15873,19072,27783,33260,37127
5221601,"Urua_u",-49.14748562,-14.52021976,19326,36304,32213,33929,33530,36949
1501204,"Baiao",-49.67275337,-2.791961861,7506,12134,16261,20072,21119,36907
3554508,"Tiete",-47.71147253,-23.09788948,18065,17283,20033,26446,31710,36827
3552106,"Socorro",-46.52921159,-22.59202995,20959,20688,23666,30763,32704,36695
2104909,"Guimaraes",-44.59774646,-2.135077158,29110,33447,41280,44320,35439,36618
3533502,"Novo Horizonte",-49.22174953,-21.46847499,22863,23098,26818,30446,32432,36612
2608800,"Lajedo",-36.32149662,-8.662856866,18728,21478,25685,29718,32209,36606
3104205,"Arcos",-45.54363187,-20.28256312,17190,16962,22035,27418,32687,36582
5219308,"Santa Helena de Goias",-50.59844326,-17.81235514,15999,25481,26650,33142,34545,36459
4311809,"Marau",-52.19677693,-28.44845393,25688,26418,27001,25167,28361,36383
3302601,"Mangaratiba",-44.04112655,-22.96171194,12655,12338,13845,17925,24901,36311
4217204,"Sao Miguel do Oeste",-53.51883941,-26.72642718,18871,22355,35769,42247,32324,36295
2913705,"Inhambupe",-38.35401927,-11.78912746,17927,19417,22851,25777,29589,36290
2917003,"Itiuba",-39.85327697,-10.69190123,19029,26033,30551,34403,35543,36112
2922003,"Mucuri",-39.54754589,-18.08853974,25571,16766,15143,17606,28062,36043
3103405,"Ara_uai",-42.06420655,-16.8517814,26980,30280,31369,33826,35713,36041
1503200,"Igarape-A_u",-47.62237549,-1.124322,20776,15966,23007,27307,32400,35843
3170800,"Varzea da Palma",-44.73034658,-17.59757018,7530,11096,18553,29523,31641,35804
2411205,"Santa Cruz",-40.33768766,-8.237961118,16680,20323,22337,28654,31294,35759
3541604,"Promissao",-49.85773523,-21.5388675,19884,20544,20218,27981,31105,35688
2207009,"Oeiras",-42.13140566,-7.016418006,40306,41576,47315,51891,33910,35646
2615409,"Toritama",-36.05684349,-8.006650271,4918,6382,8619,14907,21800,35631
2408300,"Nova Cruz",-35.43230039,-6.480064792,22644,22285,26048,30053,33834,35541
1200609,"Tarauaca (Seabra)",-70.75550106,-8.155668592,21788,23862,28358,22287,26037,35526
3518602,"Guariba",-48.23405673,-21.357996,9042,11448,18893,28911,31085,35491
5210406,"Itaberai",-49.80347937,-16.02113021,27113,25371,25830,24852,27879,35412
2310704,"Pentecoste",-39.26700873,-3.796266736,27739,34620,32132,32252,32600,35412
2607653,"Itambe (Tambe)",-51.99000431,-23.66009858,39203,25083,28167,34250,34982,35398
3300605,"Bom Jesus do Itabapoana",-41.6776798,-21.13449744,38019,29418,27970,29873,33655,35384
3301306,"Casimiro de Abreu",-42.20421054,-22.4795365,13123,16799,22171,33845,22152,35373
3539509,"Pitangueiras",-51.58576806,-23.23030385,14574,15813,18607,29490,31156,35314
2613107,"Sao Caitano",-36.1373598,-8.3273605,31049,23933,24605,29598,33426,35278
3145901,"Ouro Branco",-36.94629508,-6.699658947,6347,6329,12203,27423,30383,35260
3505302,"Barra Bonita",-53.44130254,-26.6522936,14445,17328,22596,30841,35487,35256
2921708,"Morro do Chapeu",-41.15909651,-11.55012611,45275,23433,31827,31776,34494,35207
2308005,"Massape",-40.34213486,-3.523870584,17801,21715,23236,23689,29574,35201
2602001,"Bodoco",-39.93616319,-7.779342627,20399,22121,25803,28507,31731,35178
2905800,"Camamu",-39.10056972,-13.94707634,36965,33273,36156,32850,33661,35160
2600104,"Afogados da Ingazeira",-37.63768602,-7.748327586,23005,16529,24496,29617,32922,35091
3502507,"Aparecida",-38.08333825,-6.783695141,19529,24669,29337,33247,34904,35043
1500305,"Afua",-50.39142759,-0.159171694,14440,17826,23339,20008,29505,35017
3201407,"Castelo",-41.2022127,-20.60206509,40003,25759,25879,29592,32756,34826
3112307,"Capelinha",-42.51607537,-17.69538522,18263,19634,23722,30338,31231,34796
2401008,"Apodi",-37.79778448,-5.663769819,17607,21056,27541,31175,34174,34777
5000609,"Amambai",-55.24382769,-23.10058224,24370,22667,58524,25951,29484,34739
2922607,"Nilo Pe_anha",-39.11298551,-13.60449442,20406,22113,23897,29544,35139,34711
4321501,"Torres",-49.73040449,-29.33593061,35389,41129,41615,37474,30880,34646
2107803,"Parnarama",-43.09040135,-5.684467176,19390,24109,35284,31332,32469,34613
4318903,"Sao Luiz Gonzaga",-54.95965955,-28.40664695,55537,41061,47540,41671,39553,34558
3500709,"Agudos",-48.99015629,-22.474037,16939,18543,24472,31706,32484,34532
1502905,"Curu_a",-47.85126509,-0.73249551,20377,22537,24402,25776,26160,34490
1300805,"Borba",-59.59455902,-4.390619892,20318,16514,23562,17217,28619,34452
3134400,"Iturama",-50.20197358,-19.73194752,14785,42644,47565,45699,28814,34440
3306206,"Vassouras",-43.66387402,-22.40900757,46341,41148,44322,28649,31451,34439
2306900,"Jaguaribe",-38.62300505,-5.886459045,21276,26161,28549,32340,35062,34416
3101508,"Alem Paraiba",-42.6959466,-21.87680371,31789,28442,28838,30932,33610,34341
2901007,"Amargosa",-39.5981225,-13.03445136,31040,24443,25211,28026,31108,34340
4313706,"Palmeira das Miss_es",-53.31495391,-27.90062088,56693,58658,65998,52968,38192,34335
2605103,"Custodia",-37.64109659,-8.089002,27862,20711,26823,28849,29969,34305
2108306,"Penalva",-45.17646169,-3.293233318,18743,22644,26088,29287,30299,34246
1504901,"Muana",-49.21683244,-1.530026208,12553,14985,18699,22367,25467,34237
2112407,"Turia_u",-45.36915242,-1.669022048,17658,23867,57472,39599,31289,33956
1505908,"Porto de Moz",-52.24247692,-1.746090089,7231,7523,11807,15407,23545,33951
2928000,"Santaluz (Santa Luzia)",-39.3773778,-11.25336003,10300,16312,23120,30634,30955,33816
3500105,"Adamantina",-51.07336475,-21.68831148,33818,31798,32044,32091,33497,33797
2614105,"Sertania",-37.2673901,-8.07245,27241,31373,32477,31510,31657,33723
4302808,"Ca_apava do Sul",-53.48756892,-30.51474323,40971,33829,32974,34618,34643,33700
1500503,"Almeirim",-52.57683509,-1.527338803,7083,11889,33082,33442,33957,33665
2110708,"Sao Domingos do Maranhao",-44.39287926,-5.565642,27573,20440,28882,34404,33049,33630
4213609,"Porto Uniao",-51.08160463,-26.2300049,32248,22792,27711,29798,31858,33497
1300607,"Benjamin Constant",-70.02734843,-4.374989019,10373,15127,24650,18312,23219,33391
2302107,"Baturite",-38.88002138,-4.331205156,20510,22220,24460,27147,29861,33326
2102101,"Brejo",-42.75084783,-3.679178,23810,22049,25555,27153,27513,33314
2929305,"Sao Gon_alo dos Campos",-38.94977243,-12.4303098,33038,21858,21711,24288,27000,33289
2910602,"Esplanada",-37.94498147,-11.7994095,14041,16671,19016,23205,27230,33278
2926301,"Riachao do Jacuipe",-39.38303549,-11.80597903,48865,49864,62887,37610,31633,33081
2600401,"agua Preta",-35.51855735,-8.709122552,34416,28166,37013,36609,28531,33046
2906808,"Cansan_ao",-39.49660501,-10.66674991,12739,18790,24423,30903,31947,32923
4203600,"Campos Novos",-51.22367299,-27.39905298,40067,43135,39389,42813,28729,32829
2924405,"Pilao Arcado",-42.48475676,-9.997771056,16680,24803,27899,31949,30713,32815
3525706,"Jose Bonifacio",-49.68628272,-21.05371904,19725,20738,22970,26488,28714,32774
3305000,"Sao Joao da Barra",-41.05034815,-21.64045775,54833,55619,54597,59561,27682,32767
4119608,"Pitanga",-51.76315401,-24.75274775,56006,64014,84502,64514,35861,32645
1301100,"Careiro",-60.36380984,-3.82244727,33108,40768,34972,31816,27554,32631
2613503,"Sao Jose do Belmonte (Manissobal)",-38.75945378,-7.861740055,25549,23101,29261,31015,31652,32620
4112009,"Jaguariaiva",-49.7121863,-24.2530565,14051,15100,15310,25149,30780,32616
2103703,"Cururupu",-44.86776162,-1.825520781,46904,33880,38094,41332,33747,32594
2804508,"Nossa Senhora da Gloria",-37.41992146,-10.21568685,8209,13716,20422,23478,26910,32514
2611002,"Petrolandia",-49.69486862,-27.52812683,9948,14499,23709,32963,27320,32485
5209101,"Goiatuba",-49.36664347,-18.01063324,18670,24579,26942,32479,31130,32481
2708501,"Sao Luis do Quitunde",-35.56549084,-9.314117369,13262,16121,25862,31238,29543,32416
2210607,"Sao Raimundo Nonato",-42.69228516,-9.015360482,33119,47092,57721,44208,26890,32347
2906303,"Canavieiras",-38.94737587,-15.67977748,62259,33460,42118,33019,35322,32331
3113305,"Carangola",-42.03222452,-20.73255051,34939,34121,33381,40053,31921,32321
1200302,"Feijo",-70.35398361,-8.16024753,13722,15768,19571,17769,26722,32311
2907806,"Cicero Dantas",-38.38341913,-10.59217153,29377,34529,37605,27201,30934,32304
4309100,"Gramado",-50.8719457,-29.37973752,11144,12378,16325,22095,28593,32300
2206209,"Miguel Alves",-42.89316665,-4.168215582,20002,24597,26640,27679,29849,32292
2916500,"Itapicuru",-38.21861238,-11.3109527,27822,16942,19693,24851,27315,32278
2307007,"Jaguaruana",-37.78239148,-4.839555168,17817,22437,24905,25917,29735,32239
2405801,"Joao Camara (Baixa Verde)",-35.81678787,-5.538423383,13928,18310,22826,25854,29248,32203
4102406,"Bandeirantes",-54.36319389,-19.9209203,30220,38773,33743,34310,33732,32182
5003306,"Coxim",-54.75805595,-18.50841054,12997,18537,27627,33549,30866,32180
3132503,"Itamarandiba",-42.84915776,-17.85851733,33437,27020,28897,32506,29400,32177
3500303,"Aguai",-46.97969311,-22.059684,10986,13171,17062,23363,28195,32168
4117701,"Palmeira",-50.15900141,-27.58226207,17116,20030,24235,29046,30847,32125
2512101,"Pombal",-37.79826727,-6.769855485,45569,36191,39953,39511,31954,32117
4109609,"Guaratuba",-48.57572596,-25.87424198,6694,9734,12183,17998,27257,32088
2904902,"Cachoeira",-38.96939807,-12.5962108,28363,27382,27953,28290,30416,32035
3151503,"Piumhi (Piui)",-45.96056867,-20.47088287,17862,17141,20923,24938,28783,31885
1300300,"Autazes",-59.13356709,-3.578663642,14049,14217,16030,17107,24345,31876
2613602,"Sao Jose do Egito",-37.27507219,-7.474025183,25563,23607,26149,28676,29468,31838
3201902,"Domingos Martins",-40.65939635,-20.36423852,20801,24453,27576,35598,30559,31824
3162104,"Sao Gotardo",-46.05314404,-19.31270019,25292,18223,17325,19697,27631,31807
2313609,"Ubajara",-40.90714393,-3.848491435,17032,17700,20351,23374,27095,31792
5106505,"Pocone",-56.62650935,-16.25950947,14649,18832,23359,29856,30773,31778
2106904,"Mon_ao",-45.24758467,-3.49393248,36179,50090,66881,25362,26043,31748
3550407,"Sao Pedro",-35.64031103,-5.897980282,9374,10141,13175,20176,27897,31688
3513108,"Cravinhos",-47.73004235,-21.3404305,13771,14230,16942,22561,28411,31688
2113009,"Vitorino Freire",-45.24418514,-4.2911865,79106,36792,28206,30885,27462,31654
2310209,"Paracuru",-39.02954534,-3.411635009,20083,24522,28603,20942,27541,31638
2605301,"Exu",-39.72272834,-7.516307,23821,30551,33316,31941,32423,31636
3505203,"Bariri",-48.74152477,-22.071978,18250,17497,19888,24542,28224,31603
3146008,"Ouro Fino",-46.38008083,-22.28352442,26747,19606,22420,30593,29416,31580
3550209,"Sao Miguel Arcanjo",-47.99558915,-23.87949,11392,13864,17150,25382,30798,31452
1303908,"Sao Paulo de Oliven_a",-68.94485349,-3.466509623,15488,18814,19391,13623,23113,31426
5218300,"Posse",-46.36201044,-14.08773356,10545,13286,21679,23518,25696,31417
1503507,"Irituia",-47.44075561,-1.771474995,20004,33393,44968,31110,30518,31382
1702208,"Araguatins",-48.12350734,-5.650586473,14767,12542,18225,27861,26010,31324
2310308,"Parambu",-40.69420724,-6.210336002,13742,21925,29542,30079,32302,31320
5210208,"Ipora",-51.11959509,-16.44000267,10952,17199,27244,29688,31300,31274
3128006,"Guanhaes",-42.9370491,-18.77715079,26905,22426,22781,25173,27828,31266
4122305,"Rio Negro",-54.98750232,-19.44742911,30263,18436,21676,26315,28710,31261
2909307,"Correntina",-44.6410867,-13.34177182,23901,30365,34785,28005,30583,31259
2112902,"Vitoria do Mearim (Baixo Mearim)",-44.86957224,-3.482047365,28081,34168,50409,50294,29953,31234
3108602,"Brasilia de Minas",-44.42753309,-16.20587269,41656,38363,40322,44979,30266,31221
2108504,"Pindare-Mirim",-45.34686792,-3.605500575,84863,23585,26466,31579,27517,31145
3124302,"Espinosa",-42.81298184,-14.92527181,22068,29351,32711,37594,30978,31113
2307502,"Lavras da Mangabeira",-38.96727505,-6.754747977,28871,30838,30526,30751,31203,31096
3200102,"Afonso Claudio",-41.12545972,-20.07704001,47240,47383,48290,32527,32232,31086
2414407,"Touros",-35.45529317,-5.202606801,17947,19442,19731,27043,27879,31076
5101704,"Barra do Bugres",-57.18640869,-15.06625794,4332,22250,23637,22264,27460,31058
3513702,"Descalvado",-47.62066397,-21.909083,15780,15510,20338,25750,28921,31053
4317301,"Santa Vitoria do Palmar",-53.36700638,-33.51986003,17726,23458,27170,34462,33304,31002
3202801,"Itapemirim",-40.83614512,-21.01109963,31960,28558,35110,44492,28121,30988
2309300,"Nova Russas",-40.56530335,-4.70680835,31702,41052,46604,37832,29347,30977
2106607,"Mat_es",-43.20120828,-5.522465019,16448,19200,23773,25318,26433,30930
3534609,"Osvaldo Cruz",-50.87313911,-21.7970835,26441,23377,26116,28918,29648,30917
2402204,"Canguaretama",-35.12853966,-6.374925216,14617,15579,17981,22919,27011,30900
3168002,"Taiobeiras",-42.22791555,-15.81152144,11844,14023,19126,26673,27347,30894
2111409,"Sao Luis Gonzaga do Maranhao (Ipixuna)",-44.6627085,-4.373918491,54928,47610,47125,45361,32605,30892
2603009,"Cabrobo",-39.30984134,-8.515105483,18451,19522,20869,23965,26741,30883
2513901,"Sao Bento",-37.44934966,-6.489307541,7239,10975,14406,21579,26225,30880
2805406,"Po_o Redondo",-37.68421371,-9.805790208,4231,9298,16731,20155,26022,30877
2302305,"Bela Cruz",-40.16684291,-3.055106724,12685,18319,21867,25966,28358,30873
2509701,"Monteiro",-37.12268068,-7.892217,25339,25396,26857,27052,27687,30844
3200201,"Alegre",-41.53648832,-20.76326514,49985,40312,33519,30422,31714,30784
4113304,"Laranjeiras do Sul",-52.40884742,-25.40168151,36087,39651,62883,54102,30025,30783
2609501,"Nazare da Mata",-35.2213387,-7.737688,44943,23742,25463,26539,29254,30782
2801306,"Capela",-36.07500849,-9.412931556,18869,20114,23014,25105,26518,30769
1303106,"Nova Olinda do Norte",-59.09307403,-3.887592832,8421,11903,13210,12949,23725,30761
2608107,"Joao Alfredo",-35.59150237,-7.860188727,27369,24025,25262,27419,27023,30735
2616308,"Vicencia",-35.32030069,-7.6529595,25921,25270,26030,28018,28820,30731
3145307,"Novo Cruzeiro",-41.87539154,-17.47488886,36290,31422,31214,30748,30453,30726
3519303,"Ibate",-48.00238821,-21.955602,6311,7475,11453,18827,26462,30724
4308607,"Garibaldi",-51.52954846,-29.25454911,19328,20812,23041,25926,28337,30692
4108809,"Guaira",-48.31447049,-20.32014433,21486,32875,29169,30000,28659,30669
1301407,"Eirunepe",-69.86629026,-6.667352567,8408,10882,14770,20372,26074,30666
2926400,"Riacho de Santana",-38.31483303,-6.264730547,23959,29387,33113,27259,28643,30651
5007208,"Rio Brilhante",-54.54224222,-21.80119526,5626,10269,15579,22509,22640,30647
4307807,"Estrela",-51.97026029,-29.50347188,27753,30752,37412,26686,27401,30628
3518206,"Guararapes",-50.64263905,-21.25344649,27595,23324,22515,26689,28843,30600
2803203,"Itaporanga d'Ajuda",-37.30782693,-10.99673277,14306,13872,16605,20324,25482,30428
2917706,"Jaguarari",-40.19361147,-10.26285426,15037,17538,23044,31141,27412,30342
2911204,"Gandu",-39.48632408,-13.74378079,21419,18038,29261,26461,27160,30329
4304200,"Candelaria",-52.78966844,-29.67128542,24589,26559,26384,28012,29585,30176
2708402,"Sao Jose da Tapera",-37.38370777,-9.54939574,18130,15757,24787,27413,27562,30140
3508603,"Cachoeira Paulista",-45.01063041,-22.66475438,15327,17336,20553,23212,27205,30099
4320800,"Soledade",-36.36266486,-7.058741378,71550,46443,47569,30582,29727,30065
5220108,"Sao Luis de Montes Belos",-50.374288,-16.51981016,13740,25246,25227,25039,26383,30050
2312106,"Santana do Acarau (Licania)",-39.73797978,-7.180897783,19943,22537,23728,22447,26198,29977
3546306,"Santa Cruz das Palmeiras",-47.24941442,-21.827568,10296,13000,16085,21819,25556,29974
3510005,"Candido Mota",-50.38839317,-22.7469255,21761,23583,19786,25450,29280,29911
1300706,"Boca do Acre",-67.39957776,-8.751243196,18118,19989,21842,25005,26959,29880
2927200,"Ruy Barbosa",-35.93548416,-5.879428941,31857,30948,31450,30052,29026,29869
1507201,"Sao Domingos do Capim (Capim)",-47.77478457,-1.6758145,14657,29786,63545,42526,27405,29827
3114303,"Carmo do Paranaiba",-46.31428888,-18.99728903,24287,25978,25385,27358,29460,29752
2606101,"Gloria do Goita",-35.29232239,-7.999608472,47521,28697,27224,26808,27554,29675
2604700,"Correntes",-36.3297019,-9.128665502,38933,34664,30806,27593,28021,29542
3544004,"Rio das Pedras",-47.60448489,-22.84286072,9095,8917,13468,19104,23494,29508
2923704,"Paratinga",-43.18202508,-12.69069712,16588,18409,20548,24181,27679,29475
2605707,"Floresta",-52.08308485,-23.61026714,20402,28163,32228,32336,24729,29284
1506005,"Prainha",-53.48181394,-1.8056945,8759,12304,45358,26742,27301,29265
2313104,"Tabuleiro do Norte",-38.12973713,-5.24380387,12395,19421,23242,26106,27098,29210
2110104,"Santa Quiteria do Maranhao",-42.56287301,-3.498484995,13239,14896,18336,20937,28150,29172
3531902,"Morro Agudo",-48.05759383,-20.732663,17803,16609,17437,21253,25428,29127
3200805,"Baixo Guandu",-41.01206774,-19.51424613,28689,26958,25930,27121,27819,29086
3152006,"Pompeu",-45.00187086,-19.22095718,16926,17037,17156,20350,26089,29083
3155603,"Rio Pardo de Minas",-42.54123198,-15.61307802,37466,37559,42741,48807,27237,29075
1503101,"Gurupa",-51.64369572,-1.404918,13585,13971,15582,18969,23098,29060
4108601,"Goioere",-53.02731891,-24.18918839,23732,73854,48780,45131,29750,29024
2407203,"Macau",-36.63497318,-5.11336765,18147,25800,24059,25895,25700,28974
2922300,"Muritiba",-38.98868882,-12.62337244,37419,28133,31122,24534,30644,28897
4308508,"Frederico Westphalen",-53.40077674,-27.35888241,42529,25567,29932,24935,26759,28848
3520301,"Iguape",-47.55313741,-24.7069542,15367,19211,23373,27937,27427,28844
3542206,"Rancharia",-50.89021169,-22.22845101,21496,22041,23339,26913,28772,28773
2504306,"Catole do Rocha",-37.74850009,-6.346752995,29511,23500,25855,25220,26641,28766
2704500,"Maragogi",-35.22301541,-9.015456486,14195,12764,14960,16403,21832,28746
4109708,"Ibaiti",-50.19066627,-23.84982148,20753,31537,28479,26026,26448,28725
5217401,"Pires do Rio",-48.28029255,-17.30058111,13484,18423,19253,22131,26229,28691
1505205,"Oeiras do Para (Araticu)",-49.85510611,-2.004734,10541,10768,12471,18792,23255,28595
1502806,"Curralinho",-49.79152285,-1.80942342,8313,10572,12688,15204,20016,28582
3125101,"Extrema",-46.32216174,-22.85819007,8864,8910,10777,14314,19219,28564
3505609,"Barrinha",-48.16281352,-21.1917435,6552,8430,12563,18853,24207,28503
3538808,"Piraju",-49.38397449,-23.1929915,23913,20336,21386,26076,27897,28489
2500304,"Alagoa Grande",-35.63389198,-7.036775,33219,31635,30447,30128,29169,28482
3201605,"Concei_ao da Barra",-39.72747442,-18.5984623,32059,32078,28386,22282,26494,28477
2101004,"Arari",-44.77883465,-3.45917097,16340,17792,22275,24826,26366,28477
2805703,"Propria",-36.84209936,-10.20820732,20461,21309,21298,25091,27385,28457
4110102,"Imbituva",-50.59747297,-25.23061304,18742,20332,21985,25621,24496,28455
2205706,"Luis Correia",-41.66456723,-2.881566536,14808,20521,25617,28835,24253,28422
2907103,"Carinhanha",-43.7617772,-14.3020069,21334,19390,22286,25565,27272,28378
1504307,"Maracana",-47.45526796,-0.76241946,18855,18089,21112,25575,27571,28376
2308302,"Milagres",-39.8591271,-12.87057492,14744,18910,20795,24187,26959,28317
3510807,"Casa Branca",-47.0797582,-21.77798699,17212,18170,21751,25308,26800,28312
3520400,"Ilhabela",-45.35405667,-23.7886525,5039,5707,7810,13538,20836,28176
2112100,"Timbiras",-43.93843397,-4.253840505,17650,18648,20240,22960,26401,28007
3520103,"Igarapava",-47.75106657,-20.03961253,26972,21202,20257,22324,25925,27960
4311007,"Jaguarao",-53.37752292,-32.56356867,18376,22451,23270,27755,30093,27942
2605905,"Gameleira",-35.38661078,-8.583835771,15211,14890,16950,19641,24003,27915
3202306,"Gua_ui",-41.67949629,-20.77533781,32577,16715,19397,21964,25492,27853
2923803,"Paripiranga",-37.8704477,-10.67599231,27855,32208,35437,26027,26591,27782
2409407,"Pau dos Ferros",-38.20326152,-6.114731839,16678,12138,16217,20827,24758,27733
3111606,"Campos Gerais",-45.75690737,-21.23869791,20361,19333,21310,23946,26541,27623
3168408,"Tarumirim",-42.00773458,-19.28149487,63022,48438,35965,30148,26398,27603
3119302,"Coromandel",-47.20154773,-18.4738506,15972,20098,20933,24954,27452,27551
2208304,"Piracuruca",-41.70904155,-3.929287494,19621,25143,29399,31163,24786,27548
4311304,"Lagoa Vermelha",-51.52722853,-28.20887025,37811,28791,28270,28733,29833,27529
3530102,"Mirandopolis",-51.10564039,-21.13208699,25318,23549,21530,24433,25936,27475
2309409,"Novo Oriente",-40.77476727,-5.533864836,14408,17361,24692,26318,26119,27461
1300508,"Barreirinha",-57.06775049,-2.798149837,10682,11722,15391,16316,22579,27361
3203007,"Iuna",-41.53288869,-20.34859951,32210,31876,37613,23260,26112,27340
3502903,"Ara_oiaba da Serra",-47.58724294,-23.5073198,12143,6557,8540,14544,19816,27323
2922508,"Nazare",-39.01062258,-13.03514822,27722,21780,23599,25954,26365,27269
4308201,"Flores da Cunha",-51.18222058,-29.03114214,12985,14626,15479,19869,23678,27135
2805604,"Porto da Folha",-37.27663485,-9.919258872,11493,15924,22862,23476,25664,27124
2102200,"Buriti",-42.92510618,-3.9455715,19048,19231,22158,22856,24126,27042
4209003,"Joa_aba",-51.50668973,-27.17394453,34501,20794,24717,28144,24066,27005
2803609,"Laranjeiras",-37.1605682,-10.79702951,12250,10627,13270,18944,23560,26903
3303005,"Miracema",-42.19841141,-21.4111633,21069,21187,22007,25091,27064,26829
1504604,"Mocajuba",-49.50902346,-2.582872973,7887,9087,12789,18496,20542,26745
2705507,"Murici",-35.94755559,-9.316301144,36649,26599,25852,28724,24671,26706
2516003,"Solanea",-35.65615841,-6.7598975,23161,25699,30376,32732,30658,26689
3144003,"Mutum",-41.43913852,-19.80718922,36490,32910,26036,27039,26693,26672
4116901,"Nova Esperan_a",-52.20486636,-23.18425139,43095,29379,23947,24189,25729,26613
1504406,"Marapanim",-47.70254875,-0.712150996,20233,16922,17725,20087,24718,26605
2917300,"Itubera (Santarem)",-39.14904249,-13.73615691,13943,15933,27599,20553,24133,26592
2302701,"Campos Sales",-40.37900313,-7.0733835,22797,31694,32121,23282,25566,26510
2312700,"Senador Pompeu",-39.37532533,-5.589343752,21575,24693,26903,26597,27225,26494
3110608,"Cambui",-46.05801936,-22.61109716,13557,15717,17301,22302,22969,26491
2110609,"Sao Bernardo",-42.42300966,-3.36543651,17487,19795,22572,24667,22720,26480
2921203,"Miguel Calmon",-40.59606961,-11.42834421,28385,23009,23393,25260,28267,26466
2614600,"Tabira",-37.54026577,-7.591136513,24650,16245,19407,22726,24065,26430
2311603,"Reden_ao",-38.72957075,-4.22295815,33349,37669,42647,22757,24993,26423
3547502,"Santa Rita do Passa Quatro",-47.47898085,-21.70714401,17921,19064,20846,24124,26138,26420
3537909,"Pilar do Sul",-47.71550772,-23.814612,8060,10265,13844,19488,23948,26411
3551504,"Serra Negra",-47.5977621,-21.20947798,11808,13650,17314,21704,23851,26362
3304003,"Pirai",-43.89935119,-22.62875691,23050,24150,28786,33782,22118,26309
2927705,"Santa Cruz Cabralia",-39.01318258,-16.33809658,10765,27171,49379,6535,23888,26198
2105005,"Humberto de Campos",-43.46509214,-2.591223972,13002,16242,18324,20071,21266,26197
4321303,"Taquari",-51.86277648,-29.80280085,22453,26786,28913,25024,25887,26135
5211206,"Itapuranga",-49.94449342,-15.56233125,20299,30086,30366,31215,26740,26085
2202703,"Cocal",-41.55684483,-3.47045349,13889,18897,24303,26989,24150,26044
3118809,"Cora_ao de Jesus",-44.35849529,-16.68932345,31523,30140,30088,32688,25729,26035
3160405,"Santo Ant_nio do Monte",-45.29393592,-20.08721925,17534,16560,14913,17979,23473,25989
1505700,"Ponta de Pedras",-48.87178556,-1.396599998,15767,10998,12876,16500,18694,25989
3203403,"Mimoso do Sul",-41.36442527,-21.06537351,33042,23778,23284,24041,26199,25898
4101606,"Arapoti",-49.8248285,-24.14656917,9228,13650,17104,20603,23884,25856
3152808,"Prata",-37.08233398,-7.696983084,16693,18501,19554,24638,23576,25805
2201507,"Batalha",-37.12709189,-9.674593028,16442,19020,21465,22332,24127,25786
2701001,"Boca da Mata",-36.2117249,-9.645144567,9191,15362,18162,22188,24227,25780
3116605,"Claudio",-44.76842253,-20.44457466,11709,13610,16054,18481,22522,25777
5002407,"Caarapo",-54.8269701,-22.63658222,13758,26007,27213,22492,20706,25763
2911907,"Ia_u",-40.21336524,-12.76913779,13395,19261,25174,26065,28501,25735
2913507,"Iguai",-40.09751345,-14.75796253,24448,23696,23549,22984,25134,25724
3144607,"Nepomuceno",-45.23742912,-21.23457693,23836,19371,21175,24069,24822,25721
2707305,"Porto Calvo",-35.39833446,-9.052448314,15870,17654,20482,22658,23951,25718
1300409,"Barcelos",-62.92566966,-0.972801053,10901,7724,9091,11035,24197,25715
1501907,"Bujaru",-48.03587501,-1.513991462,11874,15735,25987,14117,21032,25700
1301001,"Carauari",-66.89663528,-4.881665904,13868,16984,20037,19298,23421,25700
5104807,"Jaciara",-54.96418818,-15.96483818,5664,32132,14437,21917,23796,25666
2610202,"Panelas",-36.0015758,-8.667242285,28032,30610,28728,26666,25874,25654
5005608,"Miranda",-56.39019829,-20.2393335,12949,18634,24126,20176,23007,25615
2305605,"Independencia",-54.18810833,-27.84733156,28450,39075,43845,24031,25262,25586
2800670,"Boquim",-37.62357348,-11.14639163,10843,7989,18323,23015,24188,25528
4318507,"Sao Jose do Norte",-52.03420227,-32.02060911,27868,18824,21747,22071,23796,25523
2313203,"Tamboril",-40.31906851,-4.833928583,15908,21065,25931,26260,25973,25455
2709400,"Vi_osa",-37.94740902,-5.991857175,42492,28734,24670,23571,26263,25444
2913200,"Ibotirama",-43.21869627,-12.18401357,7250,10630,17157,23270,24149,25422
2907301,"Castro Alves",-39.42651943,-12.76583264,40613,46716,50465,26773,25561,25419
2202901,"Corrente",-45.16331252,-10.44093604,12430,14397,21548,24964,23226,25408
2301208,"Aracoiaba",-38.80944097,-4.370393807,26127,33902,35253,22508,24064,25405
3300506,"Bom Jardim",-35.5871395,-7.799512181,18742,17095,18531,20630,22651,25398
3162401,"Sao Joao da Ponte",-44.00895511,-15.92451307,46613,33394,33146,32476,26028,25362
3151404,"Pitangui",-44.89011889,-19.68059724,21313,13983,16332,20173,22269,25339
2100709,"Anajatuba",-44.62067003,-3.257554842,18892,16385,19195,19528,22978,25294
3123601,"Eloi Mendes",-45.5664342,-21.60931278,15062,14697,16986,19373,21947,25266
2401107,"Areia Branca",-37.3133626,-10.75819225,13249,15600,17233,21216,22530,25263
3526407,"Laranjal Paulista",-47.83378071,-23.05401161,12706,13107,15171,19144,22145,25246
3512209,"Conchal",-47.17437574,-22.33007645,5884,7833,13025,19272,22676,25242
3502705,"Apiai",-48.8486599,-24.513316,15823,19635,26936,35185,27162,25196
4304804,"Carlos Barbosa",-51.50381763,-29.29829681,10479,12364,13665,15921,20519,25193
4121703,"Reserva",-50.85059581,-24.651648,13828,20917,23603,25084,23977,25177
2105104,"Icatu",-44.06584847,-2.774827863,14691,15228,19498,20679,21489,25147
3538600,"Piracaia",-46.3587552,-23.050499,12104,12883,13748,18999,23347,25139
3162906,"Sao Joao Nepomuceno",-43.01128577,-21.53569706,18987,18156,17611,21432,23786,25062
2932309,"Ubata",-39.52266779,-14.21146655,11925,17374,23244,25900,21803,25015
2800605,"Barra dos Coqueiros",-37.04124155,-10.90679925,4447,5568,7939,12727,17807,25012
3101102,"Aimores",-41.07332746,-19.49195015,41007,38060,28880,26440,25105,24969
3537404,"Pereira Barreto",-51.10666102,-20.636669,33278,52413,46366,49932,25028,24959
2923100,"Olindina",-38.3310802,-11.35830614,7693,12813,16571,21462,23909,24943
2615003,"Taquaritinga do Norte",-36.04333767,-7.902159826,13447,14492,14907,17093,19757,24923
3126703,"Francisco Sa",-43.48873528,-16.47568087,31752,26736,24642,24993,23562,24918
2111102,"Sao Joao dos Patos",-43.70291017,-6.498208152,13229,17457,22894,25552,23182,24913
1500701,"Anajas",-49.94500104,-0.984451394,9083,10092,11784,14284,18322,24771
3514106,"Dois Corregos",-48.38267599,-22.367316,14417,13417,15463,18838,22522,24768
2928208,"Santana",-51.17284647,-0.038373479,31081,19118,21899,24669,24139,24747
5210109,"Ipameri",-48.15866768,-17.72217681,18080,20518,20388,20794,22628,24745
5208905,"Goias",-50.14138414,-15.9357427,33588,35828,42958,27782,27120,24745
3539202,"Pirapozinho",-51.49958429,-22.27667548,27865,15922,17921,20992,22104,24718
2205805,"Luzilandia",-42.37163752,-3.460817635,20273,25525,34264,36013,24042,24711
2307809,"Marco",-40.15164364,-3.120707025,12100,12631,13932,20704,20427,24707
2705002,"Mata Grande",-37.72522406,-9.114806258,35297,20858,23479,26475,25032,24702
2801207,"Caninde de Sao Francisco",-37.78796372,-9.654104067,1661,2837,6153,11473,17754,24693
3302908,"Miguel Pereira",-43.47467612,-22.45542661,14697,13652,14721,19446,23902,24647
2920502,"Maracas",-40.43128755,-13.43767449,42550,21831,25716,27154,31683,24615
2925808,"Queimadas",-35.89943391,-7.3607915,16662,22830,27245,23162,24613,24583
2933000,"Valente",-39.46424607,-11.41248954,12642,16993,21790,17830,19145,24579
2804607,"Nossa Senhora das Dores",-37.19371121,-10.49205437,21872,16177,17493,19606,22195,24579
2301703,"Aurora",-49.64362791,-27.29902949,20749,24599,25056,24491,25207,24573
2112605,"Urbano Santos",-43.40424847,-3.2084095,12910,16383,19875,23388,17603,24548
2303808,"Cedro",-39.23713822,-7.717469233,19787,22758,21758,22930,24062,24538
