"ID","Name","Long","Lat","X1961","X1971","X1981","X1991","X2001","X2011"
7,"Dornbirn // Bregenz",9.741,47.397,82059,106046,119161,128977,134994,144916
13,"Graz",15.457,47.049,246690,264741,262734,266703,266902,307974
16,"Innsbruck",11.393,47.291,103703,125571,133312,136406,132004,139294
19,"Klagenfurt",14.321,46.616,80681,89623,95345,98470,102356,107657
29,"Linz",14.273,48.27,231274,252820,255053,262114,245801,255250
47,"Villach",13.835,46.611,47053,50966,52635,54567,57390,59285
52,"Wels",14.016,48.166,54380,64118,68692,72312,77786,82094
53,"Wien",16.325,48.188,1777954,1795499,1723818,1742536,1766748,1948571
54,"Wiener Neustadt",16.259,47.824,43780,45991,52121,57024,62472,67890
60,"Salzburg",13.036,47.801,128696,154268,166970,176737,179022,186121
63,"Brussels",4.392,50.966,3624047,3888699,3916245,3923380,4020803,4376050
69,"Brugge",3.215,51.248,104138,116865,118002,117078,116882,116885
70,"Charleroi",4.48,50.42,458033,457484,443574,425706,419069,424663
72,"Dendermonde",4.132,51.007,79971,82234,83659,84175,85778,90115
77,"Hasselt // Genk // Beringen // Sint-Truiden // Heusden-Zolder",5.324,50.954,306317,361465,400144,417590,439760,468798
83,"La Louviere",4.197,50.48,180054,182399,181528,180982,181873,186141
85,"Liege",5.651,50.593,813051,829076,815638,804603,807902,846055
87,"Lommel // Overpelt",5.358,51.221,35128,43610,49326,53575,59052,64001
88,"Maasmechelen // Dilsen-Stokkem",5.694,51,38242,44348,49441,51036,53981,57014
89,"Mol",5.144,51.22,53219,61603,64347,66745,69601,75734
90,"Mons",3.89,50.457,227287,230313,227390,222582,218923,222808
91,"Namur",4.847,50.441,100594,108882,116995,119653,123068,129100
94,"Oostende",2.886,51.171,101161,110236,109956,114079,117686,125427
98,"Sint-Niklaas // Beveren",4.193,51.186,177356,186373,194649,199481,204536,216681
104,"Tournai",3.415,50.609,76731,77164,75896,75466,74806,77096
105,"Turnhout",4.923,51.321,57338,64559,69502,72875,77070,81691
114,"Blagoewgrad",23.087,42.01,27889,40593,59180,68437,72528,70259
116,"Burgas",27.423,42.526,100551,150514,183164,196906,198042,193564
121,"Dobrich",27.804,43.579,49637,69467,97330,102805,99118,92031
124,"Gabrowo",25.291,42.822,53021,82420,78952,77342,70440,59651
128,"Haskowo",25.542,41.93,49605,69310,84117,80473,79672,76431
144,"Pazardzhik",24.328,42.195,46673,63448,73402,80545,77629,74850
145,"Pernik",23.053,42.599,76936,86854,92653,89248,86257,77879
149,"Plewen",24.601,43.41,70603,101668,130643,134172,121888,113015
150,"Plowdiw",24.761,42.139,190157,254984,353366,339254,349558,350776
161,"Shumen",26.945,43.27,56362,76108,94765,91060,93828,86290
162,"Sliwen",26.317,42.688,57809,85113,97714,103248,104869,92478
164,"Sofiya",23.365,42.706,736220,926576,1059608,1117149,1143253,1175728
166,"Stara Zagora",25.623,42.428,71052,111052,136177,150904,148657,139749
171,"Warna",27.917,43.203,149172,235015,291224,303325,292713,321692
172,"Weliko Tarnowo",25.621,43.08,30788,45304,63580,65423,63460,67214
175,"Wratsa",23.551,43.24,33102,51062,68564,74387,72286,59870
176,"Yambol",26.494,42.482,49420,72552,82523,90806,88011,75742
178,"Ruse // Giurgiu",25.977,43.845,139494,197618,230253,245543,235339,223199
181,"Larnaka",33.596,34.938,23457,23717,39373,52611,62217,76589
182,"Lemesos",33.012,34.705,55025,73788,101324,130706,155130,180866
185,"Strobolos // Leikosia // Lakatameia",33.378,35.141,86467,101674,136197,168954,198535,236075
194,"Brno",16.59,49.203,326637,347829,375833,391511,379869,384363
198,"Ceske Budejovice",14.484,48.981,64483,76793,92980,101645,102097,98674
202,"Chomutov",13.417,50.48,42876,51394,63852,71191,71715,70157
207,"Frydek-Mistek",18.35,49.665,34474,45887,58393,66536,64590,61726
208,"Havirov",18.449,49.789,56025,86594,89931,90601,90231,84249
211,"Hradec Kralove",15.844,50.208,66405,80586,96205,99855,97199,93876
221,"Karvina",18.534,49.856,53009,82354,81998,72643,69702,64977
222,"Kladno",14.111,50.149,55810,63141,71151,71743,71142,68716
231,"Liberec",15.051,50.766,79837,85793,97558,102692,100904,103656
238,"Most",13.615,50.514,56790,61161,61681,70512,68301,66765
243,"Olomouc",17.273,49.596,80106,89467,99383,102729,102610,99596
244,"Opava",17.903,49.936,48012,53314,58841,62748,61405,58744
246,"Ostrava",18.243,49.813,269030,313047,338002,342223,331735,317982
249,"Pardubice",15.76,50.032,67539,81863,94721,96449,92803,92107
252,"Plzen",13.373,49.74,139899,153670,171634,173755,166239,167613
254,"Praha",14.466,50.067,1132930,1141140,1182700,1213650,1169820,1232510
272,"Teplice",13.815,50.666,68756,69758,69896,66744,64953,65293
279,"Usti nad Labem",14.062,50.665,82512,89056,97907,103812,102127,102459
289,"Zlin",17.67,49.228,61093,68509,77518,81085,78870,75941
294,"Aalen",10.122,48.836,56633,65194,63030,64781,66373,66113
314,"Arnsberg",8.022,51.418,72563,80537,78056,75864,77473,74227
316,"Aschaffenburg",9.139,49.986,87230,99017,100248,107865,114697,115657
321,"Augsburg",10.901,48.358,298343,332873,338265,356593,366577,378169
342,"Bad Oeynhausen // Lohne",8.763,52.212,73786,81464,81486,85032,91428,88499
352,"Baden-Baden",8.218,48.75,57212,58593,56831,60774,63404,65667
355,"Bamberg",10.897,49.908,94531,94731,92327,91868,92215,93446
360,"Bayreuth",11.591,49.959,69835,73571,75623,77785,81191,79902
367,"Bergheim // Kerpen",6.673,50.968,33788,40920,54064,58146,63526,62129
369,"Berlin",13.403,52.491,3423610,3354793,3197837,3567588,3581274,3702371
376,"Bielefeld",8.559,52.011,309947,327887,325372,332781,338094,339383
384,"Bocholt",6.601,51.854,58120,65141,65352,68936,72138,73170
393,"Brandenburg an der Havel",12.519,52.403,90046,96929,97457,92679,78404,71778
394,"Braunschweig",10.524,52.275,277196,272295,261141,258833,245816,248867
395,"Bremen",8.716,53.158,592983,627086,599865,588165,579710,588920
396,"Bremerhaven",8.587,53.538,141017,142919,134923,130446,120822,113366
417,"Celle",10.095,52.645,70787,74556,72820,72260,72127,70242
418,"Chemnitz",12.908,50.822,331764,334253,347963,322029,266828,250230
423,"Cottbus",14.366,51.773,81651,94606,122173,134149,113618,102091
427,"Darmstadt",8.636,49.87,164254,182481,180739,184579,187192,193395
432,"Delmenhorst",8.646,53.049,59763,66301,72370,75154,76644,74361
435,"Dessau",12.231,51.854,115673,119434,120960,114130,100029,86906
436,"Detmold",8.882,51.933,60258,63684,67612,70074,73695,72758
447,"Dormagen // Koln",6.795,51.105,30961,50560,56645,58260,62957,62961
448,"Dorsten",6.99,51.713,46930,58238,70287,78035,81063,76775
452,"Dresden",13.768,51.052,726668,729965,739025,687404,649856,688881
455,"Duren",6.461,50.803,78696,88063,85913,86508,91801,92820
456,"Dusseldorf",6.766,51.209,856172,875097,818499,805977,805049,825187
482,"Erfurt",11.02,50.983,202682,213671,226728,224461,200564,204994
486,"Erlangen",10.989,49.584,75582,101687,109726,112018,110658,115634
490,"Eschweiler // Stolberg (Rhld.)",6.266,50.782,104312,110133,111028,111906,113772,112979
493,"Essen // Duisburg // Dortmund // Bochum // Gelsenkirchen // Krefeld // Oberhausen",7.061,51.479,4700147,4612919,4292086,4261232,4177274,4016904
494,"Esslingen am Neckar",9.359,48.728,118886,135040,127713,128096,128595,130557
496,"Euskirchen",6.815,50.637,36668,42278,44811,49654,53680,55620
502,"Flensburg",9.424,54.792,101772,103223,96873,97700,95520,100181
506,"Frankfurt am Main",8.531,50.08,1500030,1648284,1616350,1618647,1653040,1719467
510,"Freiburg im Breisgau",7.824,47.996,158049,184846,189233,206270,220809,240655
516,"Friedrichshafen",9.475,47.688,41590,51972,52080,54129,57163,59002
518,"Fulda",9.675,50.554,63573,70604,69971,71129,78766,80730
521,"Gaggenau // Gernsbach",8.359,48.775,42479,51676,54809,55997,57498,56821
533,"Gera",12.074,50.897,115177,122168,134980,137801,116800,103005
539,"Giessen",8.674,50.58,75520,87002,83714,81835,80763,84961
545,"Goppingen",9.638,48.708,112296,124168,120855,127073,135000,133386
548,"Gottingen",9.931,51.543,107850,116190,129656,121831,124132,121060
554,"Grevenbroich",6.608,51.088,44927,54462,60317,60835,64688,63891
563,"Gummersbach // Bergneustadt",7.6,51.03,56704,65269,66675,71005,74075,70893
566,"Gutersloh",8.393,51.917,69771,76199,78221,86807,95158,96404
570,"Halle(Saale)",11.969,51.48,262281,292551,321404,310234,247736,232963
573,"Hamburg",10.007,53.558,1964980,1987622,1877607,1896174,1976510,2058989
574,"Hameln",9.369,52.108,61733,62973,58390,58539,58807,57771
575,"Hamm",7.824,51.665,161641,170265,171869,179639,182427,181783
577,"Hannover",9.724,52.402,682717,701164,673657,658460,666104,677313
583,"Heidelberg",8.689,49.385,165427,175440,184501,193497,205239,214793
586,"Heilbronn",9.191,49.183,131510,157706,156753,163368,177807,181728
596,"Herford",8.663,52.114,67142,65422,62881,63893,65083,64088
604,"Hildesheim",9.944,52.145,106964,108208,102619,105291,103909,102794
627,"Ingolstadt",11.424,48.769,75872,95583,101872,118668,131993,142870
631,"Jena",11.587,50.924,86921,91618,106542,105610,99893,105129
634,"Kaiserslautern",7.761,49.433,100025,100696,98745,99351,99825,99184
640,"Karlsruhe",8.337,49.019,284819,317577,303970,307882,314118,329936
641,"Kassel",9.488,51.312,229447,245389,234246,234390,236787,237973
647,"Kempten (Allgau)",10.308,47.743,52604,56703,60195,64725,64493,65425
648,"Kerpen",6.67,50.875,34589,42634,54725,57337,63135,64602
651,"Kiel",10.15,54.319,300052,298015,286089,283182,269845,276232
658,"Koblenz // Neuwied",7.538,50.387,270472,282766,278975,277329,285437,279521
659,"Koln",7.076,50.827,1589979,1809227,1840162,1845142,1902592,1981054
660,"Konigs Wusterhausen // Zeuthen // Wildau // Berlin // Schulzendorf",13.656,52.301,57303,59796,62005,61241,69309,74922
662,"Konstanz",9.154,47.695,67617,83030,84406,92328,95622,104237
674,"Landshut",12.138,48.561,61142,69284,72463,78892,80944,86209
676,"Langenfeld (Rhld.)",6.956,51.111,32763,44356,47027,53455,58429,59160
687,"Leipzig",12.362,51.353,736211,712173,674209,608604,550198,579037
694,"Lichtenstein/Sa. // Hohenstein-Ernstthal // Oelsnitz/Erzgeb. // Lugau/Erzgeb. // Oberlungwitz",12.702,50.756,102548,97178,88682,78184,72154,64675
701,"Lippstadt",8.352,51.677,54615,62154,61927,62345,66933,66976
711,"Lubeck",10.703,53.887,253842,264888,252321,251311,249774,247059
713,"Ludenscheid",7.639,51.213,75793,79086,74578,79401,80613,75463
718,"Luneburg",10.424,53.25,67880,70457,69685,70533,77004,83236
720,"Magdeburg",11.642,52.117,268036,279544,288446,280536,232694,231525
721,"Mannheim // Ludwigshafen am Rhein",8.468,49.478,563089,610630,571788,586324,587873,597267
723,"Marburg",8.754,50.806,57716,66210,76419,74146,77390,80656
728,"Marl",7.111,51.667,86359,91926,89082,91467,93256,87557
741,"Menden (Sauerland)",7.803,51.437,44791,52114,53337,56527,59239,55496
752,"Minden",8.898,52.301,74984,79104,77713,78145,83079,82114
755,"Monchengladbach",6.412,51.167,257313,264423,258424,259436,263014,257993
766,"Munchen",11.532,48.14,1206953,1469502,1522695,1457741,1458135,1619758
767,"Munster",7.624,51.954,219435,253614,269696,259438,265609,279803
778,"Neubrandenburg",13.249,53.542,33005,46087,75939,89284,73318,65282
784,"Neumunster",9.984,54.081,80321,85697,80591,81067,79831,76830
787,"Neunkirchen // Schiffweiler // Spiesen-Elversberg",7.194,49.351,115296,115759,105660,103730,102517,95604
803,"Nurnberg",11.091,49.462,656787,704905,683404,700921,710265,732555
804,"Nurtingen // Wendlingen am Neckar",9.353,48.642,47485,59425,66526,71320,74140,75919
817,"Offenburg",7.944,48.478,43218,51707,50486,52964,57455,59215
819,"Oldenburg (Oldenburg)",8.224,53.145,125198,131545,136764,143131,154832,162173
826,"Osnabruck",8.047,52.278,162600,166238,157367,163168,164101,164119
832,"Paderborn",8.754,51.73,77457,94503,110155,120680,139084,146283
841,"Pforzheim",8.71,48.883,114032,131768,131043,138725,145463,148217
845,"Plauen",12.136,50.498,88272,87653,84565,76652,71543,66098
853,"Potsdam",13.048,52.403,121646,123725,142542,151806,149136,165684
867,"Ratingen",6.876,51.315,52788,68810,89466,91007,91437,91088
868,"Ravensburg // Weingarten",9.606,47.789,58609,70741,74530,79651,83073,85727
871,"Regensburg",12.118,49.016,141306,156319,159730,152762,161190,174220
874,"Rendsburg",9.654,54.297,55581,60006,58298,58687,59936,59105
875,"Reutlingen",9.21,48.483,97307,117231,120681,130456,139045,142228
880,"Rheine",7.475,52.264,58081,70003,71432,70452,75886,76530
890,"Rosenheim",12.117,47.85,54558,65048,73338,80238,85767,89171
893,"Rostock",12.134,54.144,165222,198636,232353,248088,203529,205615
901,"Saarlouis // Dillingen/Saar",6.747,49.327,65956,67494,66498,66803,66357,64549
902,"Salzgitter",10.371,52.125,111510,120239,113600,114355,112302,102394
925,"Schwabisch Gmund",9.82,48.789,56533,60582,61882,65281,67767,66215
932,"Schweinfurt",10.217,50.05,64501,67149,62629,65196,66345,65244
933,"Schwerin",11.417,53.622,92151,97389,119770,127447,101267,95220
944,"Siegen",8.035,50.934,160643,172597,166793,164682,166075,158493
946,"Sindelfingen // Boblingen",9.011,48.699,59201,92209,96313,103708,106480,106933
947,"Singen(Hohentwiel)",8.864,47.753,43219,54441,52810,54212,56471,57707
972,"Stralsund",13.08,54.297,65042,71489,74150,72780,60663,57670
975,"Stuttgart",9.152,48.812,811970,856914,810198,820268,835390,867731
987,"Trier",6.651,49.754,122452,121848,117951,121564,130053,136668
989,"Tubingen",9.048,48.528,57524,66788,73132,80372,81347,88358
997,"Ulm // Neu-Ulm",9.965,48.396,145157,156816,161826,170338,182120,191794
998,"Unna // Kamen",7.709,51.552,85232,92357,100433,107712,117940,110900
1003,"Velbert",7.055,51.335,107734,125133,122717,118968,118224,110692
1007,"Viersen",6.361,51.263,79283,85698,81114,77453,77130,75360
1008,"Villingen-Schwenningen",8.452,48.056,68244,79904,78904,78218,81214,81022
1014,"Waiblingen // Weinstadt",9.356,48.831,52538,70307,77987,82116,87427,89650
1031,"Weimar",11.318,50.978,68502,67851,67756,64246,62425,65479
1046,"Wesel",6.581,51.67,46053,54773,56776,59631,62063,60750
1049,"Wetzlar",8.488,50.583,62644,67322,63349,64044,66632,65099
1055,"Wilhelmshaven",8.087,53.567,102560,105231,99230,90561,85287,81324
1068,"Wolfsburg",10.785,52.411,94026,131728,125935,128510,121805,121451
1070,"Worms",8.325,49.649,75363,77064,73603,76503,80361,81736
1073,"Wuppertal // Hagen // Solingen",7.368,51.287,1239527,1297847,1221114,1206383,1180806,1123373
1075,"Wurzburg",9.933,49.789,140507,153647,161382,161950,164199,170664
1082,"Zwickau",12.496,50.717,175167,166399,155917,144062,124327,112864
1087,"Lorrach // Weil am Rhein // Saint-Louis",7.614,47.606,101206,120675,118348,120588,129042,135378
1089,"Saarbrucken",6.923,49.23,445307,439463,409703,403050,384938,363376
1090,"Aachen",6.093,50.761,225590,243983,254564,252603,255207,268534
1092,"Frankfurt (Oder)",14.568,52.345,69881,78975,95897,104368,92037,80270
1093,"Gorlitz // Zgorzelec",14.964,51.156,116078,123858,121558,113304,96949,90669
1096,"Aalborg",9.919,57.06,118841,127586,120109,120123,123943,130227
1098,"Arhus",10.187,56.174,172219,201856,196909,209679,227008,242503
1101,"Esbjerg",8.436,55.505,55075,65224,71811,73541,74270,73397
1120,"Kobenhavn",12.467,55.69,1309944,1342665,1217614,1166532,1220330,1283699
1122,"Kolding",9.463,55.485,35074,39086,49841,51397,55267,58356
1129,"Odense",10.377,55.389,127749,143274,146183,150711,159915,167957
1131,"Randers",10.055,56.457,55020,57415,54367,52505,55676,56453
1149,"Narva",28.109,59.354,31485,59163,74365,78891,68110,59462
1153,"Tallinn",24.758,59.462,298043,371397,441613,469866,408714,411113
1154,"Tartu",26.728,58.37,76843,91756,106094,111181,101003,97904
1160,"Albacete",-1.892,38.956,73097,91579,114632,133158,147667,169950
1161,"Alcala de Guadaira",-5.806,37.29,31004,33999,45145,52391,57027,71841
1162,"Alcala de Henares",-3.37,40.495,25123,59783,140898,162437,175329,198382
1164,"Alcoy/Alcoi",-0.517,38.682,51096,61371,65833,64600,58821,60516
1168,"Algeciras",-5.479,36.107,66317,81662,85971,101284,101475,116251
1171,"Alicante/Alacant",-0.54,38.382,135540,208396,284053,319007,339054,400555
1173,"Almeria",-2.35,36.877,89494,117655,143734,163147,173597,203021
1182,"Arona // Adeje",-16.703,28.103,11728,17630,29426,69844,61730,112009
1187,"Avila",-4.646,40.662,28867,32379,41567,49725,49724,58600
1188,"Aviles",-5.894,43.532,58316,94311,104872,101708,99268,99131
1192,"Badajoz",-6.85,38.868,95526,100051,112004,127300,134691,151700
1196,"Barcelona",2.078,41.452,2165137,2939195,3358565,3295052,3149410,3437871
1203,"Benidorm",-0.129,38.555,6259,12124,25243,74018,53404,66525
1208,"Bilbao",-2.952,43.273,543912,784994,897951,874712,834261,834872
1210,"Burgos",-3.682,42.352,82727,119915,155789,168899,166413,177773
1212,"Caceres",-6.46,39.372,52543,59265,74056,86445,85070,96494
1213,"Cadiz",-6.266,36.494,117871,135743,157390,157362,135095,124767
1221,"Cambrils // Salou",1.073,41.082,6426,11131,17947,23047,34023,56949
1229,"Cartagena",-0.99,37.639,123630,146904,172307,173056,183752,212982
1232,"Castelldefels",1.971,41.277,3920,13219,24319,32865,45211,60398
1233,"Castellon de la Plana/Castello de la Plana",-0.051,39.987,72671,107025,141042,153583,164093,198429
1235,"Catarroja // Paiporta // Alfafar // Silla // Valencia // Benetusser // Albal // Picanya // Sedavi",-0.398,39.39,52008,84368,114441,118852,125107,150185
1237,"Ceuta",-5.343,35.894,73182,67187,70804,73170,71636,82444
1238,"Chiclana de la Frontera",-6.11,36.4,21524,27337,36042,46420,59759,78907
1242,"Ciudad Real",-3.974,38.971,37081,41708,50953,59980,63003,74008
1243,"Collado Villalba",-3.988,40.641,5425,8134,18454,26123,44916,59658
1246,"Cordoba",-4.702,37.849,198148,235632,283882,310054,308260,326590
1249,"Coruna, A",-8.375,43.308,204080,217332,268794,297913,304307,330021
1251,"Cuenca",-1.987,40.223,30864,36705,42765,46972,47284,56447
1256,"Donostia-San Sebastian",-1.906,43.287,175032,229099,251533,249073,247666,255733
1257,"Dos Hermanas",-5.963,37.257,27696,39387,57016,77611,99877,125992
1261,"Ejido, El",-2.781,36.748,13311,19613,30209,41488,56416,78622
1262,"Elche/Elx",-0.665,38.247,73320,122663,162141,187168,194198,224502
1263,"Elda // Petrer",-0.759,38.487,38766,57315,72275,78292,81422,88408
1268,"Ferrol",-8.2,43.495,126126,145802,157577,151580,145183,144475
1270,"Fuengirola",-4.615,36.558,8492,20597,30414,42811,49123,69826
1271,"Fuenlabrada",-3.806,40.273,3671,8510,77710,150350,189360,213719
1273,"Gandia",-0.215,38.984,26920,37292,49122,52842,60480,77555
1276,"Gijon",-5.682,43.5,124714,187612,254708,260197,265934,276075
1277,"Girona",2.827,41.986,45462,64276,87216,95444,99481,127486
1278,"Granada",-3.57,37.139,189021,229368,308339,354163,336753,373509
1279,"Granollers // Mollet del Valles",2.242,41.584,40726,96794,154369,187966,219176,260219
1280,"Guadalajara",-3.141,40.608,23017,32381,53332,63924,67916,82924
1283,"Huelva",-6.93,37.273,74384,96689,127241,144291,142462,147340
1287,"Igualada",1.596,41.565,21878,38537,47791,51022,52207,60580
1291,"Jaen",-3.753,37.808,64917,78156,96108,107226,112177,116141
1293,"Jerez de la Frontera",-5.968,36.682,127921,146456,171784,180037,183029,209250
1295,"Langreo",-5.663,43.288,94118,86193,81071,75189,66647,62252
1299,"Leon",-5.638,42.612,81163,119041,148976,168929,157828,162534
1300,"Linares",-3.637,38.096,60068,50516,54481,58352,57643,60524
1301,"Linea de la Concepcion, La",-5.346,36.191,59456,52127,56213,58607,59375,64893
1303,"Lleida",0.581,41.631,63850,90884,109248,119215,112743,134996
1306,"Logrono",-2.454,42.464,61292,84456,110499,128030,132683,150958
1307,"Lorca",-1.754,37.699,58641,60609,60627,66916,76606,90557
1308,"Lugo",-7.565,43.001,58264,63830,73813,87366,88351,97165
1309,"Madrid",-3.704,40.441,2329474,3410444,3879365,3894686,3868072,4246448
1310,"Malaga",-4.424,36.768,282399,351256,469864,533608,525208,558256
1313,"Manresa",1.818,41.733,54848,63148,74204,74850,73425,85842
1314,"Marbella",-5.019,36.489,25300,54366,91265,120183,141255,194128
1319,"Mataro",2.434,41.546,41128,73129,96043,104280,109657,126305
1323,"Melilla",-2.931,35.287,79056,64942,58547,63582,66193,79963
1324,"Merida",-6.409,38.975,49684,52662,53767,63834,64374,71841
1326,"Mijas",-4.685,36.56,7483,9319,14785,32418,45015,71183
1329,"Molina de Segura",-1.199,38.123,16308,23178,31173,37678,46121,64837
1334,"Mostoles",-3.918,40.344,5101,20954,150712,205244,217884,229192
1335,"Motril",-3.484,36.743,24734,31716,39641,45774,50853,59639
1336,"Murcia",-1.107,37.922,243575,237744,287743,337384,368102,431663
1348,"Orihuela",-0.909,38.067,40675,40950,45364,52167,57350,81504
1350,"Ourense",-7.894,42.338,67870,77029,99356,112221,114081,117032
1351,"Oviedo",-5.874,43.35,127058,154117,189490,204039,201396,222916
1353,"Palencia",-4.548,41.974,48216,58370,73800,85821,84861,87162
1354,"Palma de Mallorca",2.715,39.556,159084,234098,303154,308548,331765,395867
1355,"Palmas de Gran Canaria, Las",-15.456,28.091,193862,287038,365034,360579,355298,379000
1357,"Pamplona /  Iruna",-1.607,42.796,105528,174692,216704,243292,252801,277969
1358,"Parla",-3.767,40.231,1781,10213,54442,69794,78457,117732
1365,"Ponferrada",-6.564,42.497,40634,47798,52421,59578,61979,67843
1366,"Pontevedra",-8.62,42.437,50483,52452,64913,74975,74958,81703
1371,"Puerto de Santa Maria, El",-6.277,36.644,52361,65996,82422,96554,100912,116673
1378,"Reus",1.12,41.149,41014,59095,80311,88462,88974,105236
1380,"Rivas-Vaciamadrid",-3.528,40.34,1207,1007,657,14189,33389,69534
1382,"Roquetas de Mar",-2.617,36.776,7013,12776,18886,32084,48418,82917
1384,"Rozas de Madrid, Las",-3.901,40.536,4767,7249,16777,41761,75195,109103
1387,"Sagunto/Sagunt",-0.277,39.69,40293,47026,54627,55937,59285,70634
1388,"Salamanca",-5.661,40.952,94021,125220,168912,192817,172179,172601
1390,"San Fernando",-6.205,36.453,52389,60187,78507,91473,88350,96029
1394,"San Sebastian de los Reyes",-3.599,40.575,3350,15447,39270,53534,61212,78812
1395,"Sanlucar de Barrameda",-6.308,36.807,40335,41072,48368,56895,59997,66622
1397,"Sant Boi de Llobregat // Viladecans",2.015,41.309,43201,98747,150198,161076,174216,192337
1402,"Santa Cruz de Tenerife // San Cristobal de la Laguna",-16.273,28.515,194661,236636,308591,328063,326764,363813
1404,"Santa Lucia de Tirajana",-15.471,27.884,21557,30636,39955,48565,66042,93582
1409,"Santander",-3.861,43.437,141500,177784,213628,234053,228995,238507
1410,"Santiago de Compostela",-8.517,42.911,62966,70893,93281,105643,91321,94952
1412,"Segovia",-4.169,40.902,36422,44162,53079,57543,54615,54897
1414,"Sevilla",-5.979,37.383,467496,586652,711787,789055,791530,823119
1419,"Talavera de la Reina",-4.849,39.954,33401,45327,63783,69052,74863,86579
1420,"Tarragona",1.261,41.131,43413,78238,111059,112783,113104,136575
1423,"Telde",-15.43,27.983,32177,44667,63088,77387,87098,99916
1426,"Toledo",-4.015,39.87,40651,44382,57528,63463,67993,82459
1430,"Torrelavega",-4.07,43.344,44332,55913,68778,71869,69997,74006
1431,"Torremolinos // Benalmadena",-4.543,36.609,21374,32979,48634,60831,77731,122669
1432,"Torrent",-0.522,39.418,24042,39724,51152,56110,64646,79418
1434,"Torrevieja",-0.705,38,9234,9726,12268,25582,48333,85922
1441,"Valdemoro",-3.657,40.183,4411,6263,13029,17865,31619,65224
1442,"Valencia",-0.41,39.457,621129,840880,1006907,1055941,1043751,1140616
1444,"Valladolid",-4.74,41.626,151807,236341,328491,345632,318774,312087
1446,"Velez-Malaga",-4.143,36.774,35061,42454,41787,51964,56736,75042
1449,"Vigo",-8.755,42.169,159584,214079,279555,301396,306783,323875
1452,"Vilanova i la Geltru",1.705,41.237,25669,35714,43423,45845,53528,64996
1460,"Vitoria-Gasteiz",-2.688,42.85,74936,137990,191752,209419,216286,238667
1464,"Zamora",-5.806,41.516,42342,49029,59547,68056,65101,65369
1465,"Zaragoza",-0.927,41.682,324962,477854,586359,619267,612931,672381
1469,"Irun",-1.797,43.339,45444,64103,74943,79448,84365,92320
1473,"Hameenlinna = Tavastehus",24.576,61.075,56326,57026,59224,61222,63033,66829
1476,"Helsinki = Helsingfors",24.856,60.268,565780,708384,783549,855448,986018,1079545
1481,"Joensuu",30.354,62.608,54973,59039,63969,67363,71013,73305
1482,"Jyvaskyla",25.641,62.152,74098,86595,96966,103921,116519,130816
1487,"Kotka",26.887,60.569,56891,60334,60752,56634,54846,54824
1488,"Kouvola // Kuusankoski",26.773,60.94,88582,92282,94529,94352,91550,88072
1489,"Kuopio",27.654,62.84,65394,73221,80172,86372,92272,96793
1490,"Lahti = Lahtis",25.683,60.978,66802,88393,94767,93151,96921,101588
1491,"Lappeenranta = Villmanstrand",28.239,60.946,60001,65859,68814,68662,70587,71982
1496,"Oulu = Uleaborg",25.986,65.082,83591,100318,114776,127064,150295,173631
1499,"Pori = Bjorneborg",21.929,61.549,80248,90542,97922,96960,96321,96638
1504,"Rovaniemi",25.839,66.638,45264,45331,48056,54014,57253,60090
1505,"Salo",23.27,60.357,49079,47440,47638,49834,52604,55235
1507,"Seinajoki",22.904,62.742,33817,37596,42497,47182,50670,57811
1508,"Tampere = Tammerfors",23.717,61.513,171088,198850,212166,224596,251440,282689
1509,"Turku = Abo",22.334,60.489,163728,192822,212376,219312,239199,251471
1510,"Vaasa = Vasa",21.595,63.077,44078,49410,53758,53429,56737,59587
1516,"Agen",0.625,44.204,42412,50470,51233,51507,52901,58322
1517,"Aix-en-Provence",5.399,43.536,64192,97612,119485,124760,135410,142124
1519,"Ajaccio",8.701,41.935,31921,45644,53220,58364,54825,66854
1521,"Albi",2.172,43.932,43676,52175,57434,61272,62079,65645
1523,"Ales",4.103,44.141,44846,51571,53523,55073,54311,57549
1526,"Amiens",2.298,49.895,110873,137962,149300,150703,154902,153631
1528,"Angers",-0.562,47.461,138315,169593,188062,199799,210642,207794
1529,"Angouleme",0.144,45.648,81448,90997,100257,99589,100253,100836
1531,"Annecy",6.108,45.909,57214,82951,101177,115985,124511,133034
1532,"Annemasse",6.26,46.194,27552,45279,59972,70416,75566,85925
1537,"Arles",4.656,43.555,41183,47471,50426,54191,53470,55805
1538,"Arras",2.764,50.291,51291,69854,74556,74247,75403,77165
1546,"Avignon",4.857,43.975,101036,136243,153511,161471,167128,177346
1554,"Bastia",9.424,42.687,30043,40350,48598,46609,48402,55219
1556,"Bayonne // Anglet // Biarritz",-1.488,43.501,86612,104359,114618,121862,127199,132859
1560,"Belfort",6.845,47.644,56751,67536,71536,70658,71812,72273
1566,"Besancon",6.027,47.259,92382,116054,116790,117053,120657,120045
1567,"Bethune // Noeux-les-Mines",2.664,50.516,59762,62907,62365,61219,64341,64535
1568,"Beziers",3.231,43.348,72175,81906,77827,70825,69453,71124
1572,"Blois",1.342,47.583,34844,51839,58674,62460,62841,60974
1577,"Bordeaux",-0.633,44.861,476938,549349,574384,608973,647313,696151
1579,"Boulogne-sur-Mer",1.613,50.701,87872,93105,93424,89925,90521,86673
1580,"Bourg-en-Bresse",5.223,46.221,34178,48186,52836,55275,56588,57668
1581,"Bourges",2.392,47.084,63144,79165,84267,84453,80464,75058
1583,"Brest",-4.531,48.401,134755,165449,172307,168093,169446,161759
1585,"Brive-la-Gaillarde",1.535,45.152,41180,52263,57342,56196,55828,56759
1586,"Bruay-la-Buissiere // Auchel",2.52,50.495,110401,100609,89113,83141,79512,78132
1588,"Caen",-0.354,49.179,109206,159482,181767,186944,193828,189066
1590,"Calais",1.88,50.945,80342,89602,92577,95901,98057,95646
1603,"Chalon-sur-Saone",4.828,46.787,48227,62192,69363,67655,63345,58891
1605,"Chambery",5.91,45.578,56079,76099,90196,98888,106631,112077
1608,"Chartres // Luce",1.481,48.451,45720,62019,72686,83081,84791,85356
1618,"Cherbourg // Equeurdreville-Hainneville // Tourlaville // Octeville",-1.621,49.632,68935,80446,84924,91718,87510,81887
1621,"Clermont-Ferrand",3.121,45.779,168663,224654,253794,252982,257065,259013
1625,"Colmar",7.345,48.097,62002,77229,81020,82463,85705,88900
1626,"Compiegne",2.845,49.417,31555,40342,56879,61415,63710,64141
1629,"Creil // Nogent-sur-Oise",2.453,49.226,60223,95167,111155,118156,120758,125973
1635,"Dijon",5.038,47.316,147206,195099,213038,224174,228519,229143
1641,"Douai",3.074,50.373,136947,151706,147874,143055,139783,137461
1645,"Dunkerque",2.344,51.025,122905,149155,164531,159708,157046,147168
1646,"Elbeuf // Caudebec-les-Elbeuf // Saint-Aubin-les-Elbeuf // Saint-Pierre-les-Elbeuf",0.956,49.302,37791,44904,48314,49445,57190,57472
1662,"Frejus // Saint-Raphael",6.789,43.466,31977,48065,59153,74822,85163,92826
1672,"Grenoble",5.73,45.186,232244,330350,369214,381243,395069,402811
1681,"Hyeres",6.137,43.124,31057,40092,44513,55573,60603,64936
1698,"La Rochelle",-1.142,46.162,73116,86438,94352,93135,101778,104230
1699,"La Teste-de-Buch // Gujan-Mestras // Arcachon",-1.121,44.571,30753,36952,42270,47724,55303,62222
1703,"Laval",-0.798,48.072,38085,51095,60938,64239,66561,67960
1705,"Le Havre",0.17,49.504,217208,248653,244753,239740,230856,215406
1706,"Le Mans",0.184,47.988,137447,169116,176728,171983,174811,170471
1708,"Lens // Lievin // Henin-Beaumont // Avion // Carvin",2.869,50.442,371277,367726,352442,345124,338523,331038
1714,"Limoges",1.26,45.842,125754,154866,170854,170346,174711,182835
1717,"Lorient",-3.401,47.742,86691,101427,104158,107157,107467,105354
1724,"Lyon",4.867,45.75,880325,1076873,1181913,1234501,1305361,1403558
1729,"Marseille",5.458,43.314,807950,969947,974666,907822,920962,976447
1730,"Martigues // Port-de-Bouc",5.071,43.386,37095,55963,71617,72288,72347,76895
1731,"Maubeuge // Hautmont",3.978,50.268,66268,75328,78763,75546,71772,66941
1735,"Meaux",2.906,48.952,23068,39325,52931,61875,66775,69789
1739,"Metz",6.13,49.255,368331,422669,417940,413318,421833,422419
1746,"Montauban",1.358,44.013,40067,46737,50231,53564,55372,60377
1747,"Montbeliard // Audincourt // Valentigney",6.813,47.479,87949,113457,120363,110160,107250,102812
1753,"Montpellier",3.861,43.631,116045,186751,224099,261582,296792,333555
1756,"Mulhouse",7.356,47.765,158275,185205,199935,207916,213778,216679
1758,"Nancy",6.152,48.711,223757,260452,275520,277448,279570,277702
1759,"Nantes",-1.59,47.231,345154,419890,462098,496416,545030,573912
1764,"Nice",7.083,43.662,460825,625249,726059,803627,835945,878735
1765,"Nimes",4.349,43.835,95528,127937,137206,146643,154293,165099
1766,"Niort",-0.442,46.321,47109,58459,65197,65817,66481,68783
1772,"Orleans",1.915,47.904,129664,177153,208447,238293,256744,262166
1777,"Paris",2.314,48.838,7514899,8436404,8880193,9463377,9744904,10416084
1780,"Pau",-0.38,43.314,79959,112803,122841,132213,136449,141993
1781,"Perigueux",0.699,45.168,47073,49995,51880,50960,53295,54959
1782,"Perpignan",2.907,42.702,79555,106178,119497,117671,120956,135681
1787,"Poitiers",0.343,46.596,68472,87145,94531,96842,105987,111338
1796,"Quimper",-4.091,47.997,44755,53885,56751,59776,63290,63579
1800,"Reims",4.046,49.254,136529,177321,198868,209292,214308,207920
1802,"Rennes",-1.659,48.116,154334,201350,218371,231838,246707,255272
1805,"Roanne",4.057,46.046,69813,76707,79919,74040,70721,69282
1812,"Rouen",1.076,49.413,311812,369546,372741,371838,379719,378830
1821,"Saint-Brieuc",-2.77,48.509,55554,72879,80361,80499,82678,86628
1822,"Saint-Chamond // Rive-de-Gier",4.542,45.489,68643,78267,80126,79214,76804,76618
1825,"Saint-Etienne",4.369,45.434,295174,315117,304372,294164,269174,257847
1835,"Saint-Nazaire",-2.283,47.292,96820,107880,114152,113787,117543,119924
1837,"Saint-Quentin",3.28,49.842,63820,70173,69784,66223,64125,61128
1850,"Sete // Frontignan",3.71,43.426,43321,53775,58053,62889,65616,72941
1855,"Tarbes",0.082,43.237,57370,70666,73904,69917,68178,66155
1862,"Toulon",5.907,43.13,233970,300856,341355,356920,365961,375680
1863,"Toulouse",1.41,43.592,337132,443155,489083,572788,653850,737323
1865,"Tours",0.679,47.375,150655,212154,239339,248613,260803,266615
1867,"Troyes",4.058,48.288,92534,111964,117139,115372,118968,117818
1870,"Valence",4.878,44.932,72534,96873,104431,108147,110316,112292
1871,"Valenciennes // Denain",3.488,50.36,195741,215461,209903,202120,202947,202591
1872,"Vannes",-2.759,47.657,34603,48220,56256,63890,73339,77464
1887,"Vitrolles // Marignane",5.214,43.463,29401,54434,81790,106806,111592,110313
1898,"Lille // Roubaix // Tourcoing",3.211,50.783,1178034,1289767,1322386,1339090,1363136,1388302
1902,"Strasbourg",7.737,48.573,297469,349611,375779,396180,421662,435740
1903,"Longwy // Petange // Aubange // Mont-Saint-Martin // Bascharage",5.805,49.557,81414,84884,79134,74454,77512,82724
1905,"Dimos Agrinioi",21.384,38.639,34852,42720,45893,51947,54207,57960
1907,"Dimos Alexandroipoleos",25.851,40.954,26624,29817,38803,41800,52468,61354
1911,"Dimos Athinaion",23.765,38.036,1855126,2566368,3087947,3199698,3356545,3352865
1913,"Dimos Boloi",22.905,39.394,71190,80813,99924,108155,116264,120398
1914,"Dimos Dramas",24.177,41.219,48471,41279,48650,49707,55502,58190
1915,"Dimos Eleisinos // Dimos Aspropirgoi",23.49,38.105,29036,37574,41222,52299,69941,72508
1918,"Dimos Ioanniton",20.839,39.642,39045,46701,53266,68932,77222,90094
1919,"Dimos Irakleioi",25.123,35.285,74786,88255,114782,131541,149847,166482
1920,"Dimos Kabalas",24.463,40.979,46842,48322,58023,60148,63227,59018
1921,"Dimos Kalamatas",22.182,37.073,47473,45255,47575,50628,57467,61525
1925,"Dimos Katerinis",22.503,40.279,33289,32550,41827,48528,56261,61700
1928,"Dimos Komotinis",25.457,41.172,39652,39448,44908,45916,52510,59873
1931,"Dimos Lamieon",22.451,38.906,41047,46764,49803,55324,58534,64034
1932,"Dimos Larisas",22.406,39.644,56735,73324,102167,114089,125820,145134
1938,"Dimos Patreon",21.789,38.196,104050,120866,155305,170629,184087,194807
1943,"Dimos Rodoi",28.214,36.42,28028,32708,40405,43495,53476,57183
1945,"Dimos Serron",23.599,41.15,42827,41937,46569,51574,56048,60481
1948,"Dimos THessalonikis",22.951,40.637,375169,550266,695892,735478,778616,772876
1949,"Dimos Trikkaion",21.762,39.555,32363,38574,44981,48880,51800,60675
1951,"Dimos Xalkideon",23.641,38.474,28432,36129,43148,51460,53543,58178
1952,"Dimos Xanion",24.003,35.459,56435,57911,66021,75338,85188,100907
1953,"Dimos Xanthis",24.932,41.15,31940,31198,38421,41712,52027,62179
1961,"Grad Zagreb",16,45.81,474874,625677,720639,776443,779113,789750
1962,"Karlovac",15.65,45.48,57877,63737,69476,73331,59703,55792
1969,"Osijek",18.72,45.528,84129,108514,123562,129646,114964,108204
1971,"Pula",13.843,44.879,36883,46881,55915,62218,58683,57487
1972,"Rijeka",14.301,45.405,113434,145121,177627,190879,176578,169055
1976,"Sisak",16.382,45.419,70524,85241,92751,96474,76088,72512
1977,"Slavonski Brod",18.027,45.162,29884,39765,48908,57017,66965,61782
1978,"Split",16.453,43.539,104134,158357,213076,244246,241859,240694
1982,"Velika Gorica",16.08,45.675,25744,28326,46527,56623,63347,63517
1986,"Zadar",15.025,44.204,35171,52591,69742,83762,76814,78987
1995,"Bekescsaba",21.083,46.684,52447,59531,67955,67299,67962,62448
1999,"Budapest",19.081,47.493,1973844,2200340,2287587,2212309,2058316,2057701
2003,"Debrecen",21.666,47.53,137915,170670,199559,212024,211043,211300
2007,"Eger",20.384,47.911,42116,51741,63510,63457,60672,59472
2014,"Gyor",17.665,47.658,93482,111893,131723,136433,137580,139519
2023,"Kaposvar",17.81,46.377,49112,62012,72318,71236,68720,66414
2026,"Kecskemet",19.68,46.91,72455,85646,97432,103416,107708,111150
2038,"Miskolc",20.699,48.093,148052,183905,206904,194222,184216,168853
2048,"Nyiregyhaza",21.709,47.939,67085,84260,108814,114954,118759,119679
2055,"Pecs",18.242,46.088,119127,152520,169224,168690,162554,156493
2061,"Sopron",16.602,47.686,42544,48599,54861,55273,56167,60231
2064,"Szeged",20.143,46.25,120042,147119,164979,169638,168286,168064
2065,"Szekesfehervar",18.445,47.19,58879,81227,104099,108495,106366,100965
2070,"Szigetszentmiklos // Szigethalom // Tokol",19.005,47.34,20913,31182,39900,43325,52033,70044
2071,"Szolnok",20.185,47.173,50133,64689,75654,78205,77636,73272
2072,"Szombathely",16.616,47.232,57916,68915,85073,87361,84557,81844
2076,"Tatabanya",18.424,47.554,53348,67138,75800,73957,72484,68074
2082,"Veszprem",17.916,47.128,29256,41846,57880,63688,62859,61800
2083,"Zalaegerszeg",16.837,46.84,31134,41897,56701,62118,61671,59649
2094,"CORK",-8.498,51.878,114346,137350,156465,163273,170007,175928
2095,"Dublin",-6.267,53.31,679292,812014,939017,955667,1020608,1121312
2096,"GALWAY",-9.049,53.283,23518,29293,40712,50412,63441,74675
2101,"LIMERICK",-8.645,52.665,46193,56841,73849,71036,77924,80351
2114,"Acerra",14.388,40.966,26815,31012,36227,41608,45386,55549
2119,"Adrano // Biancavilla",14.877,37.684,41549,40760,42561,44350,55711,59072
2122,"Agrigento // Porto Empedocle",13.553,37.321,69450,69411,72021,76622,75169,79282
2131,"Alessandria",8.644,44.909,90766,100139,99199,90176,85752,89098
2133,"Altamura",16.55,40.86,43682,45538,50945,57407,63646,69100
2134,"Ancona",13.492,43.573,99032,108200,106034,101045,100518,100498
2135,"Andria",16.236,41.157,70538,76700,84177,89798,95208,99705
2137,"Anzio // Nettuno",12.66,41.487,33392,46176,55441,65945,72516,93260
2139,"Aprilia",12.656,41.579,15372,27304,37198,46515,55276,66062
2142,"Arezzo",11.904,43.445,73538,85540,90931,90892,91530,97622
2145,"Ascoli Piceno",13.578,42.853,52575,57775,59126,59469,58659,58432
2147,"Asti",8.194,44.913,58751,73097,75767,72207,71326,73693
2150,"Avellino",14.81,40.911,53216,62517,69774,72795,72493,74634
2157,"Bari",16.723,41.079,364063,421514,460474,448270,428177,427538
2158,"Barletta",16.216,41.289,66628,74097,81691,87830,91786,94072
2162,"Bassano del Grappa",11.738,45.75,55172,66056,76420,82132,89382,97595
2166,"Benevento",14.783,41.149,54899,58422,62004,62279,61830,61512
2167,"Bergamo",9.682,45.709,382519,461525,509367,525755,470979,517801
2170,"Biella // Cossato",8.096,45.566,85451,96316,101063,95912,96588,94583
2173,"Bologna",11.33,44.512,483394,563474,553049,505366,476516,482270
2174,"Bolzano",11.349,46.486,87591,104273,105227,98703,95239,101968
2180,"Brescia",10.226,45.592,261787,318608,338222,335665,338281,355444
2182,"Brindisi",17.899,40.606,69516,80506,88652,94416,89532,88833
2187,"Cagliari // Quartu Sant'Elena",9.19,39.238,200558,248270,278595,289403,296224,290727
2191,"Caltanissetta",14.009,37.47,63159,60052,60840,61580,61454,61690
2201,"Carini // Cinisi",13.14,38.135,32822,31035,32709,39643,46113,58554
2204,"Carpi",10.893,44.802,44280,53833,59697,60265,61379,66802
2210,"Caserta // Marcianise // Santa Maria Capua Vetere",14.273,41.075,173461,194934,223803,242542,263270,275610
2220,"Castellammare di Stabia // Torre Annunziata // Cava de' Tirreni // Scafati // Nocera Inferiore // Pagani // Gragnano // Angri",14.555,40.763,471931,505437,555527,590447,602905,617590
2226,"Catania",15.054,37.533,460639,521769,571296,578880,596206,602936
2227,"Catanzaro",16.603,38.89,72264,84149,98290,95707,95261,89805
2234,"Cerignola",15.877,41.279,49655,48145,50795,54933,57196,56708
2237,"Cesena",12.235,44.13,78774,85559,88883,88303,90727,95591
2267,"Cosenza // Rende",16.233,39.304,93785,117391,138727,130846,122267,117763
2270,"Cremona",10.03,45.141,71535,79388,79021,72821,71000,69688
2271,"Crotone",17.088,39.093,42318,49833,57082,58349,59880,58967
2272,"Cuneo",7.533,44.391,52899,62604,66691,67748,66505,69954
2279,"Empoli",10.96,43.736,58193,68169,72813,72108,74781,81057
2282,"Faenza",11.91,44.297,51555,55217,55996,55086,53749,57420
2284,"Fano",12.996,43.812,40277,46958,51424,53413,57200,62469
2290,"Ferrara",11.646,44.83,156086,158614,156340,146142,141310,143663
2294,"Firenze // Prato",11.145,43.836,560979,655397,685954,764921,755219,780016
2295,"Fiumicino",12.229,41.888,304049,386337,401504,393828,59571,66122
2297,"Foggia",15.584,41.456,116318,138858,154284,155400,155218,147651
2298,"Foligno",12.791,42.977,47718,49635,52079,52879,51272,55649
2302,"Forli",12.05,44.227,90092,102789,109205,108559,108345,115788
2303,"Formia // Gaeta",13.603,41.271,40558,45369,52807,56680,56179,57015
2318,"Gela",14.294,37.094,53686,65636,73753,72341,72725,75441
2320,"Genova",8.896,44.463,787551,823404,779883,699001,643967,618048
2323,"Giarre // Riposto",15.173,37.739,41361,43940,48002,50357,51354,55702
2333,"Grosseto",11.09,42.767,50659,61250,68494,70660,71226,78035
2337,"Guidonia Montecelio",12.703,41.981,21739,32215,48471,55927,66555,80276
2341,"Imola",11.716,44.388,50387,56136,59767,61788,64152,67612
2348,"L'Aquila",13.425,42.396,55438,59395,62919,66047,68324,67082
2349,"La Spezia",9.823,44.104,124113,126529,118153,104638,96113,96292
2353,"Lamezia Terme",16.278,38.938,52922,55093,62408,68588,70387,70349
2356,"Latina",12.878,41.466,47601,75315,92325,105096,107757,117089
2359,"Lecce",18.175,40.405,81466,90407,100389,110492,97122,104061
2360,"Lecco",9.405,45.833,58665,90386,97637,94506,95186,98240
2365,"Livorno",10.359,43.524,159592,173141,175181,167708,157113,156992
2371,"Lucca // Capannori",10.526,43.85,133207,137954,141634,138134,131924,139958
2385,"Manfredonia",15.818,41.533,36552,44725,52284,57739,57742,56367
2390,"Marsala",12.54,37.815,74391,73079,78116,79502,77927,80027
2393,"Massa // Carrara // Viareggio",10.149,44.031,290184,318613,333415,334430,337392,344754
2395,"Matera",16.579,40.67,38045,43845,49989,54369,57533,59638
2405,"Messina",15.509,38.188,256156,252108,260301,234933,252771,246201
2406,"Milano",9.037,45.632,3314409,4170259,4391719,4278400,4241520,4398338
2412,"Modena",10.916,44.644,135152,165926,177167,175039,175445,178865
2415,"Molfetta",16.57,41.183,61161,63118,65116,66410,62855,60594
2422,"Montecatini-Terme // Monsummano Terme // Pieve a Nievole",10.786,43.88,38604,40548,42601,58454,63908,66241
2430,"Napoli",14.261,40.912,1860830,2098062,2291332,2313771,2420574,2435953
2437,"Nola // Cicciano // Saviano",14.525,40.943,63061,65364,77673,84340,85908,88288
2439,"Novara",8.616,45.44,85342,97917,100285,99520,100792,101871
2452,"Padova",11.925,45.416,271429,325297,348577,343715,348119,367475
2455,"Palermo",13.366,38.119,638886,695724,764238,780844,790407,773405
2460,"Parma",10.328,44.794,144710,171941,177861,170428,163954,174902
2465,"Pavia",9.165,45.198,72486,83888,83333,75980,71540,68502
2467,"Perugia",12.395,43.137,110247,127189,139964,143214,148658,161379
2468,"Pesaro",12.864,43.887,64019,82090,88922,87875,90813,93990
2469,"Pescara",14.185,42.445,117629,162268,191812,199322,204857,221231
2471,"Piacenza",9.718,45.041,84358,101641,105121,99290,95846,99939
2477,"Pisa // Cascina",10.422,43.673,132807,147924,153569,150648,144992,149377
2478,"Pistoia",10.916,43.977,4940,6896,8232,72199,84499,88719
2481,"Pomezia",12.505,41.662,7599,19197,30449,38347,43541,55300
2484,"Pordenone",12.678,45.975,49320,69098,78262,77936,79568,83693
2490,"Potenza",15.807,40.659,42387,55006,63208,65115,68744,66951
2492,"Pozzuoli",14.102,40.85,55093,63588,73453,78696,78781,80232
2499,"Ragusa",14.664,36.907,57644,62048,64947,67992,68899,69729
2503,"Ravenna",12.193,44.413,112489,128425,135097,134195,134586,152173
2505,"Reggio di Calabria",15.718,38.113,150392,162442,170312,174580,179910,180781
2506,"Reggio nell'Emilia",10.635,44.697,114644,126708,129279,130967,140981,160425
2509,"Rimini",12.585,44.012,136548,175507,192872,196561,201238,216457
2514,"Roma",12.465,41.882,1849005,2361978,2465560,2426020,2599521,2686600
2522,"Rovereto",11.01,45.885,34504,42339,46661,49252,51117,57267
2528,"Salerno",14.82,40.667,146180,183437,192714,189125,180358,176597
2531,"San Benedetto del Tronto",13.867,42.95,37188,49850,54978,54973,58967,62320
2550,"San Severo",15.424,41.656,48185,49490,53660,54844,55785,54979
2562,"Sassari",8.364,40.745,80001,95149,106789,110946,119938,123544
2563,"Sassuolo",10.777,44.524,39130,56509,69308,77272,83195,87905
2567,"Savona",8.414,44.318,99648,112306,108953,99411,92024,92142
2569,"Schio // Thiene",11.398,45.745,72191,83496,89367,91624,98236,105143
2573,"Senigallia",13.188,43.693,40738,44337,48756,50928,52513,55821
2580,"Siracusa",15.214,37.039,81267,98984,115225,124180,123753,118784
2593,"Taranto",17.278,40.468,150752,175505,191441,186142,205965,207924
2601,"Terni",12.661,42.58,93406,104982,110196,107560,105199,108865
2605,"Torino",7.653,45.057,1190173,1502113,1521841,1400017,1305676,1311881
2607,"Trani",16.39,41.239,37879,40434,44116,49795,52905,55629
2608,"Trapani // Erice",12.625,37.935,96218,93347,96369,98184,97733,97284
2611,"Trento",11.11,46.068,78195,94618,103615,106773,112077,122006
2614,"Treviso",12.261,45.677,98473,117811,122816,122580,124700,130479
2616,"Trieste",13.812,45.653,276433,276099,258642,237447,218550,208721
2619,"Udine",13.217,46.061,100870,117960,124794,124396,123427,129104
2627,"Mestre",12.237,45.5,316834,344972,343330,320241,345611,342715
2631,"Verona",11.005,45.442,228607,276096,280691,273360,274361,276488
2635,"Vicenza",11.517,45.536,125654,154942,166398,167437,173237,184603
2637,"Vigevano",8.868,45.308,56163,66653,65165,60630,57671,59899
2642,"Viterbo",12.063,42.438,49506,53795,57033,58102,59216,62899
2643,"Vittoria",14.496,36.957,44728,45816,50523,54607,55286,60547
2647,"Gorizia // Nova Gorica",13.626,45.948,56170,58265,58987,56993,55222,54889
2649,"Alytaus (m.s.)",24.036,54.401,1801,2883,49151,62714,71254,60225
2650,"Kauno (m.s.)",23.93,54.919,223684,297598,356948,396626,389832,328704
2651,"Klaipedos (m.s.)",21.153,55.707,41123,59998,75994,96664,189603,163053
2655,"Panevezio (m.s.)",24.347,55.73,46170,76521,107052,125698,119896,100142
2656,"Siauliu (m.s.)",23.325,55.905,50717,74598,96813,116936,133425,109876
2659,"Vilniaus (m.s.)",25.272,54.693,225895,333820,420798,499949,552467,536075
2661,"Esch/Alzette // Differdange",5.937,49.517,58763,62056,59652,58378,63758,75697
2662,"Luxembourg",6.147,49.633,78544,94319,109806,111662,123219,142275
2666,"Daugavpils",26.543,55.891,70618,102163,117483,123166,113591,93604
2669,"Jelgava",23.716,56.651,38738,55744,68609,72160,63356,59570
2673,"Liepaja",21.037,56.542,74648,95379,109176,109649,88504,76905
2678,"Riga",24.122,56.978,607077,739023,843935,883014,756495,660092
2686,"Menton // Beausoleil",7.453,43.767,37784,47748,49044,61261,61204,63325
2687,"Valletta",14.465,35.899,180967,180268,194790,206809,218143,222147
2688,"'s-Gravenhage",4.348,52.079,810698,791850,698687,681846,693316,729961
2689,"'s-Gravenzande",4.217,51.997,58935,71438,83353,90745,95451,99717
2690,"'s-Hertogenbosch",5.31,51.699,105196,123536,133297,141372,154368,165007
2694,"Alkmaar // Heerhugowaard",4.8,52.668,65755,86925,120737,146364,160787,171994
2695,"Almelo",6.602,52.346,68177,79104,87496,87860,93113,96049
2696,"Almere",5.244,52.365,39,724,6706,71086,142765,188160
2697,"Amersfoort",5.4,52.149,81530,94281,108582,126915,154890,173674
2698,"Amsterdam",4.873,52.398,1048367,1067097,975352,963031,1020905,1071049
2699,"Apeldoorn",5.922,52.19,103016,123628,138164,147586,153261,155726
2701,"Arnhem",5.893,52.001,126399,132842,127972,130349,138154,147018
2702,"Assen",6.552,53.001,29270,39358,45534,50160,58445,66857
2706,"Bergen op Zoom",4.288,51.504,44149,50076,56832,60149,65104,65845
2710,"Breda",4.761,51.585,121085,139940,141717,148721,160615,173299
2721,"Den Helder",4.755,52.924,48567,60610,61761,61647,59441,57403
2723,"Deventer",6.236,52.268,66694,78453,80009,82446,89149,98523
2726,"Doetinchem",6.287,51.961,31069,37046,43686,48319,53848,56108
2729,"Dordrecht",4.709,51.807,170835,216814,246973,258478,275171,282196
2735,"Ede",5.728,52.076,55655,71783,82636,93161,101700,107756
2736,"Eindhoven",5.46,51.453,232562,286587,310314,317646,338398,356198
2737,"Emmen",6.962,52.75,74049,88775,99568,102702,105972,109491
2738,"Enschede",6.878,52.221,123799,139245,143042,146010,149505,157052
2751,"Gouda // Alphen aan den Rijn",4.714,52.077,108186,132371,173802,196425,216066,216653
2754,"Groningen",6.589,53.197,166490,185826,180649,186202,191722,205814
2756,"Haarlem // Velsen",4.638,52.441,335813,367189,346917,334925,345776,355336
2757,"Haarlemmermeer",4.684,52.297,43428,58966,77657,95782,111155,142788
2758,"Hardenberg",6.574,52.586,38664,43516,50466,52628,56797,59014
2759,"Harderwijk // Ermelo",5.658,52.307,31581,44088,54516,61216,66505,70274
2768,"Helmond",5.657,51.476,50618,58200,58947,68654,80098,88291
2769,"Hengelo",6.778,52.255,61479,70607,75219,76000,79724,80772
2773,"Hilversum",5.168,52.223,101189,99792,92964,84608,82177,84573
2774,"Hoogeveen",6.514,52.723,29912,42094,48675,51031,52790,54805
2776,"Hoorn",5.07,52.656,20550,23485,39606,57384,64604,70252
2779,"Huizen // Baarn",5.261,52.251,60182,68930,83975,96379,96373,95366
2784,"Leeuwarden",5.804,53.191,82766,88725,84590,85570,88887,94073
2785,"Leiden",4.476,52.154,174990,205955,221218,238854,253806,259554
2786,"Lelystad",5.473,52.477,227,4208,38971,57638,63098,74628
2800,"Nijmegen",5.763,51.827,146196,170310,177899,182111,190312,203111
2812,"Oss",5.531,51.784,46446,58755,68257,74366,80942,84043
2817,"Purmerend",4.971,52.502,11592,25018,36701,58594,70284,79038
2823,"Roermond",6.012,51.201,43597,47372,49572,50698,53542,55212
2824,"Roosendaal",4.425,51.513,44355,52755,62697,68564,75157,77566
2825,"Rotterdam",4.374,51.92,985407,1053681,1010164,1035887,1085533,1109253
2833,"Smallingerland",6.039,53.113,25813,38712,48569,50234,52437,55271
2834,"Sneek",5.527,53.01,64838,69797,75456,75384,79416,82250
2840,"Terneuzen",3.846,51.288,42618,51389,56673,55903,55359,54878
2842,"Tilburg",5.069,51.58,145105,164093,168300,174120,193168,204853
2847,"Utrecht",5.056,52.095,311508,361352,374059,404144,428199,484631
2850,"Veenendaal",5.556,52.024,23419,29784,39379,48533,59875,62053
2852,"Venlo",6.159,51.391,80309,91919,93679,97151,98923,100301
2854,"Vlissingen // Middelburg",3.639,51.486,66857,73479,87655,87987,89262,92642
2857,"Waalwijk // Loon op Zand",5.027,51.67,42488,50562,60107,64981,68150,68767
2869,"Zeist",5.255,52.102,51479,55584,61532,59469,60020,60286
2871,"Zoetermeer",4.49,52.061,8444,17129,63819,96266,109941,121532
2873,"Zwolle",6.118,52.519,65800,76427,82519,94491,106173,119030
2875,"Maastricht",5.672,50.876,128165,139804,129558,139113,145845,144025
2877,"Heerlen // Kerkrade // Landgraaf",6.02,50.885,255393,268042,267787,273325,276520,262529
2878,"Sittard-Geleen",5.828,51.005,76011,88408,92782,93108,98412,95243
2884,"Belchatow",19.366,51.36,8667,10620,27072,53732,54063,60316
2885,"Biala Podlaska",23.142,52.03,21233,27570,38307,51678,56110,57965
2887,"Bialystok",23.159,53.132,122438,170144,222478,267581,282987,293736
2890,"Bielsko-Biala",19.014,49.843,150907,174611,193479,221673,218759,218783
2907,"Bydgoszcz",18.053,53.131,225310,274935,342196,372578,368551,364037
2909,"Chelm",23.484,51.136,31158,39127,52133,63132,62241,66255
2919,"Czastochowa",19.14,50.82,185867,212794,246351,263117,256098,247029
2927,"Elblag",19.439,54.191,78256,91632,110096,123777,120307,124554
2928,"Elk",22.361,53.821,21907,27242,38250,49846,52608,58877
2931,"Gdansk // Gdynia",18.567,54.421,508172,642131,755939,796477,786383,794554
2935,"Glogow",16.05,51.669,10808,22245,50897,69212,61014,69371
2937,"Gniezno",17.602,52.528,44767,51417,61193,68895,67667,70253
2941,"Gorzow Wielkopolski",15.22,52.731,49903,75975,103178,121597,120966,124443
2945,"Grodzisk Mazowiecki // Milanowek",20.623,52.109,41643,43803,46708,47539,48224,58229
2948,"Grudziadz",18.773,53.472,65736,76701,89781,98726,94117,98604
2953,"Inowroclaw",18.253,52.781,47411,54894,65780,74575,71849,75974
2960,"Jastrzabie-Zdroj",18.614,49.955,14716,41305,93116,97152,95031,92526
2962,"Jaworzno",19.291,50.204,66432,79068,89291,97730,96890,94785
2964,"Jelenia Gora",15.708,50.871,70844,78324,89694,93724,87238,83937
2965,"Kadzierzyn-Kozle",18.241,50.351,36441,52633,68770,71153,66269,64201
2966,"Kalisz",18.076,51.744,74975,85504,99737,107533,108543,105465
2969,"Katowice // Sosnowiec // Gliwice // Bytom // Zabrze // Ruda Slaska",18.999,50.313,1744590,1878289,2032253,2110314,1999472,1903454
2972,"Kielce",20.609,50.861,99779,134669,191166,209901,206082,202289
2980,"Konin",18.262,52.255,25205,45637,65959,78952,79608,78553
2986,"Koszalin",16.206,54.202,45705,66545,91361,106505,105300,109146
2990,"Krakow",19.985,50.053,502890,612227,704388,746429,745474,757304
3006,"Legnica",16.168,51.202,65818,77785,90948,103135,103817,103253
3007,"Leszno",16.578,51.843,29795,34741,55209,57385,61200,64546
3013,"Lodz",19.481,51.737,798358,862784,932593,935078,878093,828971
3014,"Lomza",22.059,53.174,19474,25202,40027,56913,60168,63129
3019,"Lubin",16.196,51.4,6377,29907,62226,78317,75200,75350
3020,"Lublin",22.557,51.226,184928,242148,302332,342588,346035,349029
3027,"Mielec",21.463,50.288,26313,33598,45087,58497,58537,61472
3028,"Mikolow // Laziska Gorne",18.868,50.164,41927,49799,58117,65457,63049,68777
3045,"Nowy Sacz",20.688,49.638,56993,67940,81959,95907,103033,110468
3048,"Nysa",17.354,50.458,35445,44528,53051,58626,58921,58672
3053,"Olsztyn",20.474,53.782,70532,95528,132990,160282,167320,174465
3055,"Opole",17.941,50.661,69998,89847,114270,126280,125680,122700
3059,"Ostrow Wielkopolski",17.814,51.647,43674,50890,60277,71156,70585,72753
3060,"Ostrowiec Swiatokrzyski",21.399,50.946,38182,50174,64966,75819,73544,73675
3066,"Pila",16.763,53.146,34401,44532,58583,71409,73444,74744
3068,"Piotrkow Trybunalski",19.706,51.415,53599,60531,65753,73796,74171,76653
3071,"Plock",19.702,52.538,46377,74854,106234,121790,122121,124492
3076,"Poznan",16.885,52.451,445071,517372,597266,641928,646153,647305
3080,"Przemysl",22.764,49.801,65258,73913,80070,87190,88611,87762
3088,"Raciborz",18.226,50.089,37660,46112,53392,60907,57066,56305
3089,"Radom",21.157,51.406,133847,198563,194543,223871,224081,221357
3096,"Rybnik // Wodzislaw Slaski",18.501,50.075,138184,183865,212860,238246,239237,244718
3098,"Rzeszow",21.985,49.987,80435,102501,136820,168128,177465,185704
3101,"Siedlce",22.271,52.165,32630,39272,52414,69482,72254,76231
3105,"Skarzysko-Kamienna",20.892,51.127,43354,48567,51518,57377,58787,54965
3111,"Slupsk",17.032,54.465,53479,68814,87015,97987,95896,95880
3118,"Stalowa Wola",22.03,50.562,29095,36093,53397,67432,65164,65179
3120,"Stargard Szczecinski",15.014,53.317,33304,43959,56572,67117,67277,69898
3128,"Suwalki",22.932,54.1,20791,26490,40296,59081,66245,69170
3130,"Swidnica",16.491,50.844,39133,47700,56304,61338,57431,60356
3137,"Szczecin",14.614,53.432,271764,340705,390451,409308,402532,409933
3143,"Tarnow",20.973,50.025,70932,85895,105907,118415,116188,114104
3144,"Tczew",18.782,54.09,33272,40444,51817,58163,56676,60779
3146,"Tomaszow Mazowiecki",20.02,51.524,49860,56320,63815,68597,64607,65959
3147,"Torun",18.619,53.021,106368,131538,171401,199559,203728,204927
3151,"Tychy",19.002,50.123,52725,67037,111120,130581,134307,129502
3159,"Walbrzych",16.282,50.788,129951,134925,140497,144770,133706,126787
3161,"Warszawa - Centrum",21.051,52.215,1402099,1629084,1888385,1995362,2043518,2138493
3163,"Wejherowo",18.229,54.596,32438,43305,52308,58284,62962,71140
3166,"Wloclawek",19.058,52.661,65188,79668,103342,118489,113340,116691
3168,"Wroclaw",16.996,51.128,438975,533974,606043,636316,623552,629954
3177,"Zamosc",23.259,50.721,27853,35375,48205,59741,62792,65888
3181,"Zgierz",19.397,51.858,37997,44443,53542,58189,56001,58245
3182,"Zielona Gora",15.511,51.941,54700,73881,98003,112160,113378,118840
3186,"Zory",18.66,50.035,20398,25315,54329,75640,73627,73758
3189,"Cieszyn // Cesky Tesin",18.612,49.746,45378,48050,55141,63826,63195,61513
3200,"Barreiro // Moita",-9.045,38.643,95063,80518,112635,117401,112380,111307
3202,"Braga",-8.429,41.559,60392,63583,84335,96547,118312,130538
3207,"Coimbra",-8.429,40.224,73314,77306,94973,95451,101771,98509
3220,"Guimaraes // (Santo Tirso 2001)",-8.354,41.39,39055,47998,60310,68547,125769,126527
3224,"Lisboa // Sintra",-9.243,38.78,1147866,1358806,1762487,1742622,1784259,1851170
3238,"Porto",-8.586,41.11,777871,865087,1018953,1071937,1151518,1172363
3238,"Sao Joao da Madeira // Oliveira de Azemeis // Vila de Cucujaes",-8.484,40.88,37488,51256,59575,64535,70834,70763
3239,"Povoa de Varzim // Vila do Conde",-8.752,41.376,40625,44266,53499,54155,66607,68636
3243,"Seixal // Almada",-9.131,38.61,84313,146877,227212,261063,309018,334455
3244,"Setubal",-8.939,38.517,63869,65400,94149,99779,109657,116694
3255,"Viseu",-7.91,40.672,44780,41826,46995,47293,54821,58257
3259,"Alba Iulia",23.555,46.064,22018,30787,49282,73114,67111,68543
3260,"Alexandria",25.314,43.958,27729,36662,52327,67117,59683,57348
3261,"Arad",21.273,46.169,115113,144385,177844,191964,174829,165390
3262,"Bacau",26.87,46.547,72306,105338,155927,203493,186118,185214
3263,"Baia Mare",23.636,47.721,57567,93500,130673,168306,155983,154333
3270,"Birlad",27.671,46.226,34862,47049,61510,75992,69794,68846
3271,"Bistrita",24.498,47.143,23562,32619,54535,86407,81808,84822
3277,"Botosani",26.677,47.744,32349,45671,77254,120825,115688,115594
3279,"Braila",27.95,45.267,115403,161678,207954,236618,218433,210116
3280,"Brasov",25.709,45.573,155482,225578,314590,380569,321152,310137
3281,"Bucuresti",26.122,44.462,1201925,1601373,1945242,2102759,2012510,2025662
3284,"Buzau",26.81,45.14,56356,75841,110605,145205,135389,131043
3285,"Calarasi",27.331,44.204,28585,41354,56841,76217,70691,72691
3287,"Campina // Breaza",25.701,45.2,70214,81229,93003,98878,94848,90269
3295,"Cluj-Napoca",23.61,46.782,167372,216682,278984,318891,318056,308026
3297,"Comanesti // Moinesti // Targu Ocna // Darmanesti",26.405,46.391,76640,84484,93598,104851,104349,102906
3298,"Constanta",28.598,44.188,118387,190734,272922,312337,310675,301215
3300,"Craiova",23.788,44.325,120307,183748,247291,302757,302618,299071
3305,"Deva",22.914,45.862,22579,40684,66007,79786,70340,66384
3308,"Drobeta-Turnu Severin",22.575,44.667,38470,61005,85203,107698,104897,105885
3313,"Focsani",27.061,45.745,48102,62762,87490,118701,122163,121452
3315,"Galati",28.08,45.488,112251,185215,257111,304553,299480,289346
3320,"Hunedoara",22.879,45.764,49353,73623,82878,88704,72989,69548
3322,"Iasi",27.581,47.161,130489,203657,287482,335912,325490,310022
3328,"Lupeni // Vulcan",23.127,45.338,54360,61119,68988,80204,71593,66408
3346,"Oradea",21.921,47.067,108712,141920,186538,226408,208698,204937
3352,"Petrosani // Petrila",23.448,45.442,62369,69730,75113,85180,77067,71795
3353,"Piatra Neamt",26.233,46.849,94588,116836,149193,175890,164522,168143
3354,"Pitesti",24.853,44.847,55735,95095,148536,176449,181801,183427
3355,"Ploiesti",26.015,44.944,134314,175344,221345,255042,242005,235616
3361,"Ramnicu Valcea",24.336,45.089,32623,48451,84180,112710,111444,114200
3363,"Resita",21.935,45.299,54505,72079,92089,108416,86408,82526
3364,"Roman",26.931,46.915,11760,51739,66421,84656,77235,73976
3368,"Satu Mare",22.851,47.79,60518,83148,113097,135916,117256,111643
3370,"Sfantul Gheorghe",25.776,45.857,20452,28992,48765,71826,62595,61445
3371,"Sibiu",24.141,45.798,98923,126460,160187,180143,157479,154326
3377,"Slatina",24.38,44.434,16030,28983,55102,86644,79638,77146
3380,"Suceava",26.271,47.655,29690,51834,78859,111595,110537,112995
3381,"Targoviste",25.471,44.932,34429,49542,80259,108640,99414,96952
3383,"Targu Jiu",23.292,45.045,27232,45553,71680,94329,96385,96844
3384,"Targu Mures",24.558,46.557,88229,124060,162522,186684,175366,171771
3388,"Timisoara",21.23,45.748,160755,221079,295819,333842,327617,319661
3391,"Tulcea",28.818,45.15,28832,45437,70434,94534,92163,90405
3392,"Turda",23.809,46.586,39707,49302,57768,63065,56633,56700
3398,"Vaslui",27.736,46.649,18306,25402,47793,74363,70977,70237
3403,"Zalau",23.077,47.178,14017,21094,40031,66303,63289,63955
3412,"Boras",12.941,57.732,93144,102329,95389,94156,96883,103294
3416,"Eskilstuna",16.441,59.315,80849,94009,90354,89765,88408,96311
3420,"Falun",15.839,60.751,45004,46572,50597,53748,54426,56044
3422,"Gavle",17.075,60.653,79262,84500,87378,88568,90742,95055
3423,"Goteborg",12.001,57.707,471120,534884,506233,515490,556251,609808
3425,"Halmstad",12.98,56.75,62004,70616,76042,80061,85200,91800
3428,"Helsingborg",12.787,56.066,90711,100396,101956,109267,117737,129177
3429,"Jonkoping",14.191,57.775,95920,107698,107561,111486,117095,127382
3430,"Kalmar",16.148,56.684,47732,52637,52846,56206,59308,62815
3433,"Karlskrona",15.674,56.296,61269,59209,60141,59054,60564,64032
3434,"Karlstad",13.645,59.504,62483,72456,74068,76467,80323,85753
3438,"Kristianstad",14.144,56.002,62476,65255,68883,71750,74161,79543
3441,"Kungsbacka",12.165,57.448,18475,29007,43536,54220,65113,75025
3447,"Linkoping",15.599,58.372,93501,104646,112600,122268,133168,146416
3448,"Lulea",22.073,65.806,48528,58878,66834,68412,71652,74178
3449,"Lund",13.373,55.668,53246,69073,78487,87681,98948,110488
3450,"Malmo",13.028,55.573,241058,276393,248126,248448,274617,315664
3455,"Norrkoping",16.288,58.598,113059,120959,119238,120522,122199,130050
3458,"Orebro",15.294,59.268,96822,111304,110286,114042,124207,135460
3459,"Ornskoldsvik",18.232,63.55,61473,60374,60552,59379,55702,55073
3462,"Ostersund",14.891,63.243,47016,49750,55810,58317,58249,59416
3467,"Skelleftea",20.547,64.812,73541,71402,74210,75258,72476,71641
3469,"Sodertalje",17.531,59.106,43901,71157,73757,74889,77882,86246
3470,"Sollentuna // Upplands-Vasby",17.918,59.491,34010,56755,77829,87340,95624,103919
3472,"Stockholm",18.047,59.242,1048667,1145396,1130259,1201786,1332380,1505350
3473,"Sundsvall",16.887,62.494,83190,90795,94742,93808,93126,95732
3477,"Trollhattan",12.347,58.218,40043,48626,49600,51047,52891,55248
3479,"Umea",20.196,63.942,54415,69547,81088,91258,104512,115473
3480,"Uppsala",17.717,59.946,99990,124504,137708,156376,177355,197787
3483,"Varberg",12.423,57.185,33959,38955,44164,49018,52648,58084
3485,"Vasteras",16.554,59.649,91899,116725,117487,119761,126328,137207
3487,"Vaxjo",14.873,56.931,46344,59019,64661,69547,73901,83005
3495,"Ljubljana",14.519,46.063,149415,186725,221356,233910,235237,252808
3496,"Maribor",15.628,46.552,62057,71562,78347,78067,74400,76325
3503,"Banska Bystrica",19.138,48.744,32416,44878,64294,83336,85087,82287
3518,"Kosice",21.244,48.729,88393,140052,191881,223992,227111,229662
3525,"Martin",18.89,49.094,32929,43286,56962,65752,67371,65059
3528,"Nitra",18.072,48.315,48002,59592,77011,90686,92974,86083
3532,"Bratislava",17.144,48.157,247617,294315,370441,419285,406614,386562
3537,"Presov",21.246,48.995,41922,54393,72330,89586,95021,94873
3557,"Trencin",18.047,48.896,32761,39209,50537,56719,57814,55952
3558,"Trnava",17.587,48.381,34195,41811,61410,68610,70225,66505
3563,"Zilina",18.748,49.217,43947,56571,73243,85473,87142,83378
3570,"Aberdeen",-2.161,57.172,191766,197846,187419,178687,197228,209694
3572,"Abergele/Rhyl/Prestatyn",-3.462,53.311,33060,40442,45633,48774,55811,56167
3576,"Aldershot",-0.777,51.282,152988,215222,249070,252340,278810,294681
3588,"Ashford",0.858,51.145,16566,35604,42656,45761,54031,64135
3592,"Aylesbury",-0.808,51.828,27757,39047,49269,54513,66085,71977
3593,"Ayr // Irvine",-4.624,55.56,51473,98710,114191,113838,108638,107319
3599,"Barrow-in-Furness",-3.214,54.114,63306,64964,61675,60146,59196,56745
3600,"Barry",-3.255,51.409,43682,41995,44824,49479,51991,56045
3601,"Basildon/North Benfleet",0.479,51.567,41609,79836,95175,97347,96401,101819
3602,"Basingstoke/Basing",-1.103,51.264,25926,48768,73277,79402,85003,99550
3603,"Bath",-2.359,51.398,89631,88527,84779,81809,90736,96006
3606,"Bedford/Kempston",-0.469,52.121,71309,83050,89237,88534,96020,104857
3608,"BELFAST",-5.903,54.605,486839,594363,536010,538295,552446,568074
3619,"Birkenhead",-2.999,53.336,366112,387324,378439,360701,346146,358522
3624,"Blackburn/Darwen",-2.485,53.739,138621,139028,142363,134112,137697,148359
3625,"Blackpool",-3.014,53.823,238908,259310,257431,255964,259792,262540
3630,"Bognor Regis",-0.688,50.793,32826,45249,50262,54939,62058,64712
3637,"Bournemouth",-1.872,50.748,248626,311729,317545,342027,376124,412329
3640,"Brentwood",0.317,51.611,53178,58609,55477,52689,53087,57870
3641,"Bridgend",-3.604,51.522,20964,30812,41356,44283,47415,55528
3646,"Brighton/Worthing/Littlehampton",-0.306,50.842,408660,435645,423170,417625,461741,502257
3647,"Chipping Sodbury",-2.564,51.482,554627,564885,535831,522572,565014,631956
3655,"Burnley/Nelson",-2.2,53.806,160525,163552,158250,152802,157312,155321
3657,"Burton Upon Trent // Swadlincote/Donisthorpe // Stapenhill/Winshill",-1.6,52.795,78599,77138,85181,87687,94600,109716
3663,"Cambridge",0.147,52.195,111024,117911,108931,113239,138632,158643
3664,"Cannock/Great Wyrley",-2.01,52.692,46682,63600,71816,76214,81683,84605
3666,"Cardiff",-3.191,51.498,314830,315546,302486,299971,330040,372985
3667,"Carlisle",-2.939,54.894,66973,63302,70534,68426,69045,73270
3672,"Castleford/Normanton South // Pontefract",-1.345,53.697,88372,88936,88054,87063,86893,93485
3678,"Chelmsford",0.482,51.733,49239,66572,78259,83945,89892,99686
3679,"Cheltenham/Charlton Kings",-2.074,51.897,80265,94412,96534,99635,109407,115732
3681,"Chester",-2.906,53.169,76984,80828,80807,79770,82761,88735
3682,"Chesterfield/Staveley",-1.405,53.261,105430,121659,125178,125724,125891,131001
3688,"Clacton-on-Sea/Little Clacton",1.147,51.801,25616,35887,41120,45957,55451,55347
3695,"Colchester",0.89,51.886,58459,79177,84372,89712,101753,116893
3700,"Connah's Quay/Shotton // (Buckley  partir de 1971)",-3.038,53.201,16756,50453,56734,56257,61292,63964
3703,"Corby",-0.673,52.499,30900,44730,49711,48830,51115,59563
3704,"Coventry/Bedworth",-1.516,52.41,337034,363921,346589,320115,337678,357685
3707,"CRAIGAVON AND BLEARY (Lurgan jusque 1981)",-6.4,54.453,23227,30122,58744,58926,63081,71168
3709,"Crawley",-0.186,51.181,122568,140051,154505,157760,180981,196935
3710,"Crewe",-2.462,53.095,53835,58832,58555,62768,67936,72717
3714,"Darlington",-1.557,54.532,81870,78969,84842,84635,85518,91417
3718,"Dearne Valley",-1.466,53.555,132855,136718,139598,134619,129318,140797
3719,"Derby",-1.458,52.919,205524,219981,226808,226858,236534,264031
3720,"DERRY",-7.309,55.007,56328,63313,65792,80878,89925,89543
3723,"Doncaster",-1.137,53.535,142393,150569,151296,147642,140813,161394
3729,"Dundee",-2.943,56.51,199699,201632,185381,169363,171789,172868
3730,"Dunfermline",-3.398,56.06,32937,62021,69051,72739,75887,79721
3737,"East Kilbride",-4.192,55.771,25065,66857,71716,69656,70751,73182
3739,"Eastbourne",0.258,50.787,69658,83145,86873,90982,103451,114507
3741,"Edinburgh",-3.24,55.915,471799,475729,420934,398122,441995,484001
3749,"Exeter",-3.516,50.726,76566,86118,86934,91123,105277,112254
3751,"Grangemouth",-3.796,56.016,84981,99009,98282,93024,96929,102776
3760,"Folkestone/Hythe",1.124,51.08,53235,54844,56021,56829,59078,65853
3768,"Coatbridge",-4.257,55.835,1709441,1659356,1433347,1270797,1274382,1307883
3770,"Gloucester",-2.24,51.839,101242,113022,119606,124350,137319,151912
3776,"Grays/Tilbury",0.326,51.48,55048,55351,57036,60562,74023,87883
3779,"Great Yarmouth",1.709,52.6,60748,61579,62321,65469,68960,75136
3780,"Great London",-0.175,51.484,8902770,8480479,7699656,7316697,8306653,9423910
3781,"Greater Manchester",-2.391,53.512,4074741,4037972,3768337,3500579,3549544,3792245
3782,"Greenock",-4.744,55.901,111588,108093,99534,86853,84210,82343
3783,"Grimsby/Cleethorpes",-0.077,53.537,135881,139918,140662,138225,139380,140669
3784,"Guildford",-0.565,51.242,51869,54644,55302,56949,63419,70407
3788,"Harlow/Sawbridgeworth",0.109,51.768,53235,73385,78877,72425,78355,81944
3790,"Harrogate/Knaresborough",-1.511,53.997,62200,70395,78616,79748,87418,91769
3791,"Hartlepool",-1.221,54.668,95079,94150,92537,87230,85587,89967
3794,"Hastings/Bexhill",0.507,50.86,94057,104027,108385,115042,125153,133361
3807,"Hereford",-2.724,52.056,39440,44236,47030,50748,54361,58896
3810,"High Wycombe",-0.747,51.599,79164,116215,127538,126233,133663,143355
3822,"Ipswich",1.192,52.058,119675,128458,130723,130146,140562,163210
3823,"Islwyn // Caerphilly/Bedwas",-3.19,51.628,62165,111344,114241,112604,116288,123915
3827,"Kettering/Burton Latimer",-0.715,52.396,36937,38896,44642,45768,50763,56226
3829,"Kidderminster/Summerfield",-2.297,52.396,51314,57501,63123,66214,68113,68479
3834,"Kingston upon Hull",-0.308,53.75,349785,340409,331096,313229,312893,326900
3843,"Leicester",-1.148,52.631,382842,422164,421121,413825,445340,505390
3845,"Letchworth/Baldock // Hitchin",-0.247,51.971,55866,60905,70846,71790,75607,79324
3849,"Lincoln",-0.563,53.214,79706,79667,89326,92795,99189,109875
3851,"Livingston",-3.488,55.872,27685,37510,62788,67997,83456,91165
3854,"Locks Heath/Bursledon/Whiteley",-1.27,50.865,33176,28299,29217,38383,50198,54796
3856,"Loughborough",-1.231,52.771,37726,44524,46528,47335,57100,62233
3858,"Lowestoft",1.718,52.479,47991,53916,60398,64055,68320,70451
3859,"Luton/Dunstable",-0.459,51.896,158555,187090,209632,213922,234043,256737
3862,"Macclesfield/Prestbury",-2.158,53.282,40483,46580,51228,52441,51707,56326
3868,"Mansfield",-1.22,53.135,143516,153944,159646,158803,161900,175474
3882,"Milton Keynes (Bletchley jusque 1981)",-0.748,52.03,14436,30070,106359,153713,188647,230852
3885,"Morecambe/Lancaster",-2.828,54.05,79900,83768,84627,85502,94801,97275
3894,"Newbury/Thatcham",-1.32,51.412,29060,38097,47815,54469,58767,65804
3899,"Newport // Pontypool/Cwmbran",-3.018,51.638,199441,220397,226009,223413,232415,240294
3907,"Northampton",-0.88,52.251,125425,135696,158973,178206,196796,216264
3910,"Norwich",1.26,52.642,158909,175940,180960,180751,194952,211970
3911,"Nottingham",-1.196,52.952,546066,592265,573480,565838,599489,650273
3912,"Nottingham // Alfreton",-1.35,53.053,89868,99409,106037,111420,113957,117945
3913,"Hinckley",-1.445,52.528,80948,102276,111587,118530,124884,130864
3918,"Oxford",-1.285,51.749,124779,125190,115184,114441,143604,163247
3925,"Peterborough",-0.257,52.569,74459,86702,114435,129813,134834,161855
3929,"Plymouth",-4.093,50.417,222470,232816,240650,237005,245528,261107
3933,"Portsmouth",-1.077,50.859,348048,419439,419582,414814,437088,466972
3936,"Preston",-2.666,53.721,216597,233796,247090,254341,268330,289299
3940,"Reading // (Wokingham  partir de 1971)",-0.833,51.422,149784,293450,330637,357456,407379,430198
3941,"Redditch/Astwood Bank",-1.93,52.3,17274,36155,62320,72070,73204,78162
3942,"Rhondda // Pontypridd",-3.422,51.647,158522,136022,128935,123610,121760,118293
3948,"Royal Tunbridge Wells",0.244,51.144,52054,57674,59609,59635,62361,71502
3950,"Rugby",-1.273,52.384,57128,62524,64443,63571,66711,78345
3952,"Runcorn",-2.68,53.332,27332,33756,63557,64673,62014,63684
3959,"Scarborough/Scalby",-0.48,54.301,50383,59522,58280,60391,62121,65609
3960,"Scunthorpe",-0.668,53.579,71197,79366,79832,75294,72978,80016
3966,"Sheffield",-1.43,53.404,794022,792867,765726,718916,723331,793477
3969,"Shrewsbury",-2.752,52.708,50053,55933,63456,67599,72014,76794
3975,"Slough",-0.631,51.516,199529,225460,224313,223200,245859,278312
3979,"Hedge End // Botley",-1.391,50.955,249332,263636,272449,271573,306622,333832
3980,"Southend",0.64,51.567,249145,292286,303855,305685,312917,332828
3981,"Southport/Formby",-3.027,53.603,93618,103215,114280,113078,115322,114226
3984,"St Albans/Hatfield",-0.266,51.754,96273,113896,110625,106145,116070,134906
3988,"Stafford",-2.114,52.803,46874,50195,56316,55196,59995,65716
3992,"Stevenage",-0.189,51.878,51677,77224,86721,86400,92759,97594
4003,"Swansea",-3.858,51.632,254251,281098,266309,260123,265880,284264
4004,"Swindon",-1.785,51.57,98569,111722,125697,141301,155090,183699
4006,"Tamworth",-1.686,52.625,15887,38553,68748,73450,78727,81624
4007,"Taunton",-3.112,51.029,38703,48758,49349,55005,63254,67951
4009,"Teesside",-1.246,54.557,362050,396405,400819,386059,382006,397008
4011,"Telford (Wellington jusque 1981)",-2.456,52.688,28554,48032,96149,110014,126890,132900
4014,"Thanet",1.383,51.364,80155,105517,111882,113038,120079,127448
4015,"The Medway Towns",0.507,51.325,248452,315951,336830,345678,363715,394881
4016,"The Potteries",-2.171,53.021,362398,365346,359979,349325,350378,360506
4022,"Torbay",-3.559,50.447,83530,95678,96959,101213,111942,114266
4026,"Prudhoe",-1.558,54.947,1209659,1201139,1128045,1065206,1071651,1102212
4033,"Warrington",-2.574,53.385,121636,129676,138200,154898,162408,171840
4034,"Warwick/Leamington",-1.52,52.3,65575,73671,77086,75773,80853,94101
4039,"West Midlands",-1.948,52.501,2398218,2454670,2356243,2235353,2293151,2458246
4040,"Glusburn // Steeton",-1.719,53.739,1592733,1653717,1596169,1539170,1592280,1767737
4042,"Weston-Super-Mare",-2.951,51.346,44355,49587,57788,64664,71412,76143
4048,"Whitstable/Herne Bay",1.087,51.35,37228,50205,54527,60759,65941,71456
4051,"Widnes",-2.746,53.369,51020,55596,54688,55126,54334,60221
4062,"Worcester",-2.236,52.191,68505,74227,77794,83196,98758,105140
4065,"Wrexham",-3.019,53.063,36281,41462,55208,58335,60764,65534
4069,"York",-1.074,53.965,123620,128593,124943,122654,138515,155672
