"ID","Name","Long","Lat","X1961","X1971","X1981","X1991","X2001","X2011"
7,"Dornbirn // Bregenz",9.741,47.397,82059,106046,119161,128977,134994,144916
10,"Feldkirch",9.631,47.271,23712,32444,36091,42021,44909,48064
11,"Gmunden // Altmunster",13.763,47.895,24745,25976,27716,29488,30560,31039
13,"Graz",15.457,47.049,246690,264741,262734,266703,266902,307974
16,"Innsbruck",11.393,47.291,103703,125571,133312,136406,132004,139294
18,"Kapfenberg // Bruck an der Mur",15.279,47.435,39948,42725,40855,37544,35736,34647
19,"Klagenfurt",14.321,46.616,80681,89623,95345,98470,102356,107657
29,"Linz",14.273,48.27,231274,252820,255053,262114,245801,255250
30,"Lustenau",9.652,47.451,20187,25411,30735,33180,35521,38229
36,"Sankt Polten",15.642,48.199,46463,49549,50392,50040,49154,51956
41,"Steyr",14.431,48.011,45759,49217,47789,48261,48741,48009
47,"Villach",13.835,46.611,47053,50966,52635,54567,57390,59285
52,"Wels",14.016,48.166,54380,64118,68692,72312,77786,82094
53,"Wien",16.325,48.188,1777954,1795499,1723818,1742536,1766748,1948571
54,"Wiener Neustadt",16.259,47.824,43780,45991,52121,57024,62472,67890
57,"Braunau am Inn // Simbach a. Inn",13.018,48.261,26132,29229,29179,31700,33875,33610
58,"Kufstein",12.195,47.606,18016,21039,22315,23867,26905,29375
60,"Salzburg",13.036,47.801,128696,154268,166970,176737,179022,186121
63,"Brussels",4.392,50.966,3624047,3888699,3916245,3923380,4020803,4376050
69,"Brugge",3.215,51.248,104138,116865,118002,117078,116882,116885
70,"Charleroi",4.48,50.42,458033,457484,443574,425706,419069,424663
71,"Deinze",3.516,50.99,20980,22989,24840,25823,27592,29471
72,"Dendermonde",4.132,51.007,79971,82234,83659,84175,85778,90115
73,"Eeklo // Maldegem",3.477,51.197,37878,39723,40964,40458,41079,43184
76,"Gavere // Nazareth // Zingem",3.639,50.934,22487,23554,25889,27036,29235,30907
77,"Hasselt // Genk // Beringen // Sint-Truiden // Heusden-Zolder",5.324,50.954,306317,361465,400144,417590,439760,468798
78,"Ieper",2.866,50.854,31781,33429,34410,35222,35117,35102
81,"Knokke-Heist",3.311,51.331,24820,27582,28847,31738,33204,33987
82,"Koksijde",2.659,51.068,30625,32555,34406,38618,41506,44240
83,"La Louviere",4.197,50.48,180054,182399,181528,180982,181873,186141
85,"Liege",5.651,50.593,813051,829076,815638,804603,807902,846055
86,"Lokeren",3.961,51.113,30998,32117,33349,34916,36599,39546
87,"Lommel // Overpelt",5.358,51.221,35128,43610,49326,53575,59052,64001
88,"Maasmechelen // Dilsen-Stokkem",5.694,51,38242,44348,49441,51036,53981,57014
89,"Mol",5.144,51.22,53219,61603,64347,66745,69601,75734
90,"Mons",3.89,50.457,227287,230313,227390,222582,218923,222808
91,"Namur",4.847,50.441,100594,108882,116995,119653,123068,129100
92,"Nijlen // Grobbendonk",4.695,51.163,21572,24692,27345,29248,30929,32875
94,"Oostende",2.886,51.171,101161,110236,109956,114079,117686,125427
95,"Oudenaarde",3.621,50.854,26541,27192,27316,27165,28039,29967
98,"Sint-Niklaas // Beveren",4.193,51.186,177356,186373,194649,199481,204536,216681
100,"Stekene // Sint-Gillis-Waas",4.078,51.222,26007,26434,29613,31805,33899,36219
102,"Tongeren",5.508,50.77,34749,36572,37548,37428,37801,39012
104,"Tournai",3.415,50.609,76731,77164,75896,75466,74806,77096
105,"Turnhout",4.923,51.321,57338,64559,69502,72875,77070,81691
111,"Asenowgrad",24.881,42.015,33842,42820,50737,50821,52533,51019
114,"Blagoewgrad",23.087,42.01,27889,40593,59180,68437,72528,70259
116,"Burgas",27.423,42.526,100551,150514,183164,196906,198042,193564
120,"Dimitrowgrad",25.557,42.074,42592,45791,48870,51560,47875,38785
121,"Dobrich",27.804,43.579,49637,69467,97330,102805,99118,92031
122,"Dupnitsa",23.116,42.272,30706,38648,45804,44310,42340,37662
124,"Gabrowo",25.291,42.822,53021,82420,78952,77342,70440,59651
125,"Gorna Oryahowitsa",25.708,43.129,33298,42168,49259,50863,49678,43016
128,"Haskowo",25.542,41.93,49605,69310,84117,80473,79672,76431
129,"Kardzhali",25.379,41.631,28715,46549,54746,43007,45233,45604
132,"Kazanlak",25.389,42.604,37254,52701,60295,62381,58742,51204
134,"Kyustendil",22.695,42.286,31729,45019,52731,54947,50562,45431
136,"Lowech",24.703,43.141,26166,42730,47682,47559,44167,37892
138,"Montana",23.207,43.401,20812,36040,51818,51554,49036,44602
144,"Pazardzhik",24.328,42.195,46673,63448,73402,80545,77629,74850
145,"Pernik",23.053,42.599,76936,86854,92653,89248,86257,77879
147,"Petrich",23.209,41.386,19136,22288,27267,27459,29177,30112
149,"Plewen",24.601,43.41,70603,101668,130643,134172,121888,113015
150,"Plowdiw",24.761,42.139,190157,254984,353366,339254,349558,350776
156,"Razgrad",26.521,43.525,22222,38707,44484,41881,43100,36082
161,"Shumen",26.945,43.27,56362,76108,94765,91060,93828,86290
162,"Sliwen",26.317,42.688,57809,85113,97714,103248,104869,92478
163,"Smolyan",24.686,41.586,12933,22982,38041,34463,33215,31939
164,"Sofiya",23.365,42.706,736220,926576,1059608,1117149,1143253,1175728
166,"Stara Zagora",25.623,42.428,71052,111052,136177,150904,148657,139749
168,"Targowishte",26.561,43.247,20496,33013,46648,44408,40077,37598
171,"Warna",27.917,43.203,149172,235015,291224,303325,292713,321692
172,"Weliko Tarnowo",25.621,43.08,30788,45304,63580,65423,63460,67214
174,"Widin",22.861,43.999,30648,47690,59858,61452,60277,49727
175,"Wratsa",23.551,43.24,33102,51062,68564,74387,72286,59870
176,"Yambol",26.494,42.482,49420,72552,82523,90806,88011,75742
178,"Ruse // Giurgiu",25.977,43.845,139494,197618,230253,245543,235339,223199
179,"Silistra",27.264,44.094,25324,38215,54988,49461,43902,37332
180,"Swishtow",25.332,43.606,16672,23347,32096,30103,31211,35095
181,"Larnaka",33.596,34.938,23457,23717,39373,52611,62217,76589
182,"Lemesos",33.012,34.705,55025,73788,101324,130706,155130,180866
183,"Pafos",32.435,34.768,11225,11376,15252,22276,34568,45218
185,"Strobolos // Leikosia // Lakatameia",33.378,35.141,86467,101674,136197,168954,198535,236075
194,"Brno",16.59,49.203,326637,347829,375833,391511,379869,384363
196,"Ceska Lipa",14.561,50.682,15837,17710,25048,39169,39360,37458
198,"Ceske Budejovice",14.484,48.981,64483,76793,92980,101645,102097,98674
200,"Cheb",12.379,50.07,22067,26684,30901,31831,32876,33188
202,"Chomutov",13.417,50.48,42876,51394,63852,71191,71715,70157
204,"Decin",14.187,50.786,46278,50325,53218,53888,52528,50656
207,"Frydek-Mistek",18.35,49.665,34474,45887,58393,66536,64590,61726
208,"Havirov",18.449,49.789,56025,86594,89931,90601,90231,84249
211,"Hradec Kralove",15.844,50.208,66405,80586,96205,99855,97199,93876
213,"Jablonec nad Nisou",15.166,50.729,36107,36723,42237,45874,45277,45036
217,"Jihlava",15.582,49.406,36438,42595,49803,51797,50720,50602
220,"Karlovy Vary",12.867,50.226,52127,54229,58870,57837,55212,52803
221,"Karvina",18.534,49.856,53009,82354,81998,72643,69702,64977
222,"Kladno",14.111,50.149,55810,63141,71151,71743,71142,68716
225,"Kolin",15.204,50.028,25252,28570,32486,31609,30279,30996
228,"Kromeriz",17.4,49.288,23158,24505,27848,28623,29215,29064
231,"Liberec",15.051,50.766,79837,85793,97558,102692,100904,103656
232,"Litomerice",14.129,50.518,28863,33301,38943,40753,39674,38761
233,"Litvinov",13.607,50.597,31086,31717,33571,32329,31038,30135
237,"Mlada Boleslav",14.914,50.421,29821,34389,45032,47375,48128,48832
238,"Most",13.615,50.514,56790,61161,61681,70512,68301,66765
243,"Olomouc",17.273,49.596,80106,89467,99383,102729,102610,99596
244,"Opava",17.903,49.936,48012,53314,58841,62748,61405,58744
245,"Orlova",18.416,49.844,31210,32416,36214,42980,41690,38525
246,"Ostrava",18.243,49.813,269030,313047,338002,342223,331735,317982
249,"Pardubice",15.76,50.032,67539,81863,94721,96449,92803,92107
251,"Pisek",14.172,49.291,21190,23748,28127,29526,29792,29645
252,"Plzen",13.373,49.74,139899,153670,171634,173755,166239,167613
254,"Praha",14.466,50.067,1132930,1141140,1182700,1213650,1169820,1232510
255,"Prerov",17.436,49.463,35982,44374,50604,51289,48382,45455
256,"Pribram",13.998,49.676,26754,30034,35151,36869,35902,34038
257,"Prostejov",17.114,49.465,39527,41618,47293,48871,46942,44587
268,"Sumperk",16.989,49.984,21698,26405,30942,33115,34419,32704
270,"Tabor",14.693,49.4,32426,37578,43871,46709,47090,46281
272,"Teplice",13.815,50.666,68756,69758,69896,66744,64953,65293
273,"Trebic",15.873,49.225,20354,22604,29148,38182,39010,37869
274,"Trinec",18.645,49.652,27541,36183,39759,40300,38975,37153
275,"Trutnov",15.906,50.581,27674,28423,31656,34000,34203,33336
277,"Uherske Hradiste",17.465,49.055,27514,31083,36788,38807,38721,37967
279,"Usti nad Labem",14.062,50.665,82512,89056,97907,103812,102127,102459
289,"Zlin",17.67,49.228,61093,68509,77518,81085,78870,75941
290,"Znojmo",16.051,48.85,27422,29684,34575,38195,38102,36641
291,"Varnsdorf // Rumburk",14.601,50.92,43006,42308,43162,41782,39485,37233
293,"Nachod // Kudowa-Zdroj",16.219,50.432,27499,29534,30894,31128,31789,31256
294,"Aalen",10.122,48.836,56633,65194,63030,64781,66373,66113
295,"Achern",8.064,48.632,20515,24365,25437,26629,29354,30460
296,"Achim",9.04,53.021,19116,22345,27680,28974,29735,30143
297,"Ahaus",6.963,52.098,21790,26198,27988,31202,37279,38952
298,"Ahlen",7.898,51.768,47040,53366,54192,54169,55631,53414
299,"Ahrensburg",10.249,53.668,25926,33297,35208,36296,38004,40424
301,"Albstadt",8.999,48.236,46231,51925,48152,49021,47855,44974
303,"Alsdorf",6.176,50.869,47534,48953,46373,46935,46087,45522
306,"Altenburg",12.438,50.978,50989,49597,57294,50985,41290,34972
309,"Amberg",11.867,49.431,52569,55484,52164,51359,54099,53624
312,"Ansbach",10.564,49.292,41729,40384,38183,37893,40165,40253
314,"Arnsberg",8.022,51.418,72563,80537,78056,75864,77473,74227
316,"Aschaffenburg",9.139,49.986,87230,99017,100248,107865,114697,115657
317,"Aschersleben",11.489,51.761,46304,45736,42448,39739,34285,29082
319,"Aue // Schneeberg",12.655,50.587,73281,69148,65055,57132,49389,43562
320,"Auerbach/Vogtl. // Falkenstein/Vogtl. // Rodewisch",12.396,50.483,63343,58933,54159,50486,45796,40352
321,"Augsburg",10.901,48.358,298343,332873,338265,356593,366577,378169
322,"Aurich",7.542,53.495,31055,33913,34647,36856,40278,40572
324,"Backnang",9.439,48.945,25337,30447,29149,31687,34562,35395
331,"Bad Hersfeld",9.701,50.865,27633,28869,28248,30249,30778,30087
332,"Bad Homburg v.d. Hohe",8.599,50.236,42036,50045,51221,51820,52838,52229
335,"Bad Kreuznach",7.865,49.838,42963,45859,44690,46678,49217,49934
340,"Bad Nauheim",8.749,50.376,20403,23988,26979,28599,30199,31176
342,"Bad Oeynhausen // Lohne",8.763,52.212,73786,81464,81486,85032,91428,88499
345,"Bad Sackingen // Wehr",7.932,47.602,22263,25476,25311,27674,29528,29536
346,"Bad Salzuflen",8.761,52.072,43957,49571,51248,53771,55028,53893
350,"Bad Vilbel",8.748,50.191,17363,23330,25931,25075,29716,31822
352,"Baden-Baden",8.218,48.75,57212,58593,56831,60774,63404,65667
354,"Balingen",8.862,48.266,22281,27138,29738,31738,33700,33959
355,"Bamberg",10.897,49.908,94531,94731,92327,91868,92215,93446
357,"Barsinghausen",9.481,52.326,25695,30686,32962,33391,34497,33618
359,"Bautzen",14.415,51.191,48439,48594,52914,52304,43353,40573
360,"Bayreuth",11.591,49.959,69835,73571,75623,77785,81191,79902
362,"Beckum",8.047,51.761,33996,37991,37899,36772,37916,36736
364,"Bensheim",8.621,49.696,31170,36446,38029,41132,45334,46460
367,"Bergheim // Kerpen",6.673,50.968,33788,40920,54064,58146,63526,62129
368,"Bergkamen",7.63,51.623,41320,44304,47977,49761,52905,50587
369,"Berlin",13.403,52.491,3423610,3354793,3197837,3567588,3581274,3702371
370,"Berlin // Hennigsdorf",13.199,52.655,29801,34052,35915,35485,38424,37767
371,"Bernau bei Berlin",13.576,52.687,20527,20511,23946,24524,33086,36338
372,"Bernburg(Saale)",11.767,51.774,55331,53976,49174,46470,40704,35516
375,"Biberach an der Riss",9.777,48.088,23807,30915,30864,32619,35179,36424
376,"Bielefeld",8.559,52.011,309947,327887,325372,332781,338094,339383
377,"Bietigheim-Bissingen",9.119,48.955,23731,32806,34365,38961,40631,42810
379,"Bingen am Rhein // Rudesheim am Rhein",7.91,49.989,36590,36211,33844,33607,34707,33906
384,"Bocholt",6.601,51.854,58120,65141,65352,68936,72138,73170
387,"Borken",6.832,51.852,26350,29500,32420,36049,40474,41245
389,"Bornheim",6.955,50.768,26159,31274,34293,35858,45407,48531
392,"Bramsche",7.996,52.417,22728,24013,23747,28120,30633,30986
393,"Brandenburg an der Havel",12.519,52.403,90046,96929,97457,92679,78404,71778
394,"Braunschweig",10.524,52.275,277196,272295,261141,258833,245816,248867
395,"Bremen",8.716,53.158,592983,627086,599865,588165,579710,588920
396,"Bremerhaven",8.587,53.538,141017,142919,134923,130446,120822,113366
399,"Bruchsal",8.586,49.116,38901,47422,44812,46447,50937,53196
401,"Bruhl",6.887,50.821,34954,42692,42895,41829,43839,44260
404,"Buchholz in der Nordheide",9.858,53.321,14503,21000,28521,31489,35916,38735
406,"Buhl // Buhlertal",8.154,48.69,25191,28626,30019,32899,36856,37398
407,"Bunde",8.564,52.207,39286,40403,40056,40524,44582,44786
410,"Burgdorf",10.018,52.471,18720,24808,28196,29022,30314,29886
415,"Buxtehude",9.692,53.463,20061,28221,31631,32276,36699,39748
417,"Celle",10.095,52.645,70787,74556,72820,72260,72127,70242
418,"Chemnitz",12.908,50.822,331764,334253,347963,322029,266828,250230
420,"Cloppenburg",8.037,52.856,15214,18452,20912,23574,29897,32571
421,"Coburg",10.967,50.266,52293,51937,48917,47781,46811,44754
422,"Coesfeld",7.153,51.917,27281,30032,31063,32739,35947,36345
423,"Cottbus",14.366,51.773,81651,94606,122173,134149,113618,102091
424,"Crailsheim",10.055,49.131,20373,23225,24685,27917,32063,33021
425,"Cuxhaven",8.696,53.823,56577,59714,58666,56090,53391,50492
426,"Dachau",11.44,48.267,29036,34107,33950,35387,38398,42506
427,"Darmstadt",8.636,49.87,164254,182481,180739,184579,187192,193395
428,"Datteln",7.322,51.667,32020,37807,37193,36876,37293,35513
429,"Deggendorf",12.976,48.837,23792,28261,30649,30214,31219,31661
430,"Delbruck",8.541,51.765,15664,18371,21417,24247,29212,30047
432,"Delmenhorst",8.646,53.049,59763,66301,72370,75154,76644,74361
435,"Dessau",12.231,51.854,115673,119434,120960,114130,100029,86906
436,"Detmold",8.882,51.933,60258,63684,67612,70074,73695,72758
437,"Dieburg // Munster",8.832,49.916,16438,20863,24162,25977,28835,29463
439,"Dietzenbach",8.784,50.011,6211,13396,25248,29784,32982,33186
444,"Donaueschingen // Hufingen",8.47,47.935,24217,27976,29549,31637,35072,34819
447,"Dormagen // Koln",6.795,51.105,30961,50560,56645,58260,62957,62961
448,"Dorsten",6.99,51.713,46930,58238,70287,78035,81063,76775
451,"Dreieich",8.717,50.011,27564,39445,39076,38965,40114,40484
452,"Dresden",13.768,51.052,726668,729965,739025,687404,649856,688881
454,"Dulmen",7.289,51.847,27965,34259,38712,40496,46552,46762
455,"Duren",6.461,50.803,78696,88063,85913,86508,91801,92820
456,"Dusseldorf",6.766,51.209,856172,875097,818499,805977,805049,825187
458,"Eberswalde",13.782,52.827,43453,47354,53479,53514,44796,40944
465,"Eisenach",10.3,50.99,54568,56064,55441,49610,44442,42750
467,"Eisenhuttenstadt",14.639,52.156,26064,45762,47911,50785,41493,31132
471,"Elmshorn",9.675,53.745,34979,43006,43670,48715,52928,54777
473,"Eltville am Rhein // Budenheim // Walluf",8.104,50.043,24338,27277,28544,29150,31235,31700
474,"Emden",7.181,53.361,48968,52753,51186,50735,50963,51616
475,"Emmendingen",7.834,48.124,24790,31861,35326,34508,36983,38607
476,"Emmerich",6.248,51.85,20892,28117,29336,28322,28899,29571
477,"Emsdetten",7.523,52.174,25975,30040,31026,31930,35230,35523
478,"Enger // Spenge",8.512,52.138,26347,28644,29893,32171,35778,34857
479,"Erbach // Michelstadt",9.03,49.67,20551,23543,24708,26740,30265,29904
480,"Erding",11.915,48.306,19864,21183,23758,25147,31165,34514
481,"Erftstadt",6.767,50.793,24995,35096,43208,45403,50689,50553
482,"Erfurt",11.02,50.983,202682,213671,226728,224461,200564,204994
483,"Erkelenz",6.339,51.068,30889,33143,35773,37833,43194,44457
485,"Erkrath // Dusseldorf",6.927,51.218,16729,28485,43703,47659,48767,45963
486,"Erlangen",10.989,49.584,75582,101687,109726,112018,110658,115634
490,"Eschweiler // Stolberg (Rhld.)",6.266,50.782,104312,110133,111028,111906,113772,112979
493,"Essen // Duisburg // Dortmund // Bochum // Gelsenkirchen // Krefeld // Oberhausen",7.061,51.479,4700147,4612919,4292086,4261232,4177274,4016904
494,"Esslingen am Neckar",9.359,48.728,118886,135040,127713,128096,128595,130557
495,"Ettlingen // Waldbronn",8.417,48.927,32932,40653,48939,50245,50758,50939
496,"Euskirchen",6.815,50.637,36668,42278,44811,49654,53680,55620
498,"Fellbach",9.274,48.822,35772,42955,41383,40930,42946,44665
500,"Filderstadt",9.216,48.66,18023,31106,37300,38498,42234,44348
502,"Flensburg",9.424,54.792,101772,103223,96873,97700,95520,100181
504,"Forchheim",11.064,49.72,25489,27969,29021,29872,30665,30396
506,"Frankfurt am Main",8.531,50.08,1500030,1648284,1616350,1618647,1653040,1719467
507,"Frechen",6.784,50.913,33343,39940,43483,44360,47019,49939
508,"Freiberg",13.334,50.915,51292,53662,53730,50567,45428,41342
510,"Freiburg im Breisgau",7.824,47.996,158049,184846,189233,206270,220809,240655
512,"Freising",11.727,48.392,29230,32757,34577,37046,40890,45223
516,"Friedrichshafen",9.475,47.688,41590,51972,52080,54129,57163,59002
518,"Fulda",9.675,50.554,63573,70604,69971,71129,78766,80730
519,"Furstenfeldbruck",11.251,48.207,28550,36502,46785,47582,50562,53366
520,"Furstenwalde/Spree",14.057,52.374,30840,31296,35156,35086,34044,32468
521,"Gaggenau // Gernsbach",8.359,48.775,42479,51676,54809,55997,57498,56821
526,"Geesthacht",10.389,53.432,41,23245,25126,26677,29106,29228
528,"Geislingen an der Steige",9.832,48.614,33056,35587,32875,32779,33676,32353
529,"Geldern",6.311,51.519,20544,22517,26230,29245,33074,33575
532,"Georgsmarienhutte",8.075,52.205,21328,29071,31033,31910,32872,32057
533,"Gera",12.074,50.897,115177,122168,134980,137801,116800,103005
535,"Germering",11.36,48.129,11211,26957,34788,36034,36348,37780
539,"Giessen",8.674,50.58,75520,87002,83714,81835,80763,84961
540,"Gifhorn",10.524,52.506,22429,30296,33154,38678,42943,41558
544,"Goch",6.124,51.696,24516,27617,28778,29843,32675,34106
545,"Goppingen",9.638,48.708,112296,124168,120855,127073,135000,133386
546,"Goslar",10.417,51.909,54151,52649,52556,46251,44278,40989
547,"Gotha",10.705,50.941,61049,60349,58885,55576,48376,45593
548,"Gottingen",9.931,51.543,107850,116190,129656,121831,124132,121060
551,"Greifswald",13.414,54.089,47043,47334,59959,66251,54236,54610
553,"Greven",7.634,52.095,23352,27176,28743,31010,34217,36044
554,"Grevenbroich",6.608,51.088,44927,54462,60317,60835,64688,63891
556,"Grimma",12.794,51.23,37251,36505,36099,34576,33474,30255
557,"Gronau (Westf.)",7.034,52.19,35651,38681,41209,40687,44860,46553
563,"Gummersbach // Bergneustadt",7.6,51.03,56704,65269,66675,71005,74075,70893
565,"Gustrow",12.205,53.791,37160,37428,38087,37513,32323,30018
566,"Gutersloh",8.393,51.917,69771,76199,78221,86807,95158,96404
567,"Halberstadt",11.019,51.902,51888,53288,53061,51494,46437,42605
570,"Halle(Saale)",11.969,51.48,262281,292551,321404,310234,247736,232963
571,"Haltern",7.186,51.753,24193,27067,30965,34025,36776,37763
573,"Hamburg",10.007,53.558,1964980,1987622,1877607,1896174,1976510,2058989
574,"Hameln",9.369,52.108,61733,62973,58390,58539,58807,57771
575,"Hamm",7.824,51.665,161641,170265,171869,179639,182427,181783
577,"Hannover",9.724,52.402,682717,701164,673657,658460,666104,677313
583,"Heidelberg",8.689,49.385,165427,175440,184501,193497,205239,214793
584,"Heidenheim an der Brenz",10.187,48.708,50288,52103,48585,50532,51181,48164
586,"Heilbronn",9.191,49.183,131510,157706,156753,163368,177807,181728
587,"Heinsberg",6.112,51.051,29236,35239,36436,37305,41318,40760
590,"Hennef (Sieg)",7.329,50.756,20743,26053,29224,32521,42711,46114
596,"Herford",8.663,52.114,67142,65422,62881,63893,65083,64088
598,"Herrenberg",8.87,48.598,15694,20971,25422,27344,30377,31292
604,"Hildesheim",9.944,52.145,106964,108208,102619,105291,103909,102794
608,"Hof",11.906,50.296,63920,62244,58635,58494,56680,51822
610,"Hohen Neuendorf // Birkenwerder",13.287,52.689,23270,23026,22005,19634,25856,32203
615,"Homburg",7.339,49.326,37256,41295,41847,43696,45769,43808
617,"Hoxter",9.344,51.787,30622,32830,32430,33079,33117,31089
618,"Hoyerswerda",14.22,51.426,31507,63362,72758,68419,50203,37379
619,"Huckelhoven",6.231,51.043,30184,34032,35196,34816,38970,39215
622,"Ibbenburen",7.708,52.278,35621,41266,42323,44643,48843,51522
623,"Idar-Oberstein",7.353,49.702,39631,38755,35434,33764,33646,30379
626,"Ingelheim am Rhein // Oestrich-Winkel",8.019,50.005,31642,35839,35950,38327,43045,42431
627,"Ingolstadt",11.424,48.769,75872,95583,101872,118668,131993,142870
630,"Itzehoe",9.532,53.933,36085,37825,35481,36436,35275,34037
631,"Jena",11.587,50.924,86921,91618,106542,105610,99893,105129
633,"Julich",6.369,50.929,25100,31108,30449,31285,33414,33060
634,"Kaiserslautern",7.761,49.433,100025,100696,98745,99351,99825,99184
638,"Kamp-Lintfort",6.52,51.516,34723,38736,37961,39019,39982,38394
640,"Karlsruhe",8.337,49.019,284819,317577,303970,307882,314118,329936
641,"Kassel",9.488,51.312,229447,245389,234246,234390,236787,237973
642,"Kaufbeuren",10.616,47.88,39686,43025,42013,40432,41905,41843
646,"Kempen",6.438,51.379,24758,27221,30169,33809,36019,35890
647,"Kempten (Allgau)",10.308,47.743,52604,56703,60195,64725,64493,65425
648,"Kerpen",6.67,50.875,34589,42634,54725,57337,63135,64602
651,"Kiel",10.15,54.319,300052,298015,286089,283182,269845,276232
654,"Kirchheim unter Teck",9.453,48.634,31371,36775,37352,41086,44272,45557
656,"Kleve",6.125,51.803,40017,43640,44026,45963,48662,49477
658,"Koblenz // Neuwied",7.538,50.387,270472,282766,278975,277329,285437,279521
659,"Koln",7.076,50.827,1589979,1809227,1840162,1845142,1902592,1981054
660,"Konigs Wusterhausen // Zeuthen // Wildau // Berlin // Schulzendorf",13.656,52.301,57303,59796,62005,61241,69309,74922
662,"Konstanz",9.154,47.695,67617,83030,84406,92328,95622,104237
669,"Lage",8.778,51.982,27737,31063,32301,34317,36073,35169
670,"Lahr/Schwarzwald",7.874,48.336,30985,35282,35465,34719,42555,43827
671,"Lampertheim",8.469,49.617,23892,29872,31449,30800,32231,31337
672,"Landau in der Pfalz",8.051,49.225,36177,38537,36522,37274,41122,43615
674,"Landshut",12.138,48.561,61142,69284,72463,78892,80944,86209
675,"Langen",8.662,49.993,20573,29891,28826,31992,35208,35570
676,"Langenfeld (Rhld.)",6.956,51.111,32763,44356,47027,53455,58429,59160
682,"Leer (Ostfriesland)",7.461,53.244,32489,34130,31303,31375,33849,34301
683,"Lehrte",10.018,52.381,34463,37548,38371,40350,43872,43259
686,"Leinfelden-Echterdingen",9.147,48.685,18330,30195,35263,34940,36026,37222
687,"Leipzig",12.362,51.353,736211,712173,674209,608604,550198,579037
688,"Lemgo",8.902,52.034,34188,38984,39864,39485,41995,41424
694,"Lichtenstein/Sa. // Hohenstein-Ernstthal // Oelsnitz/Erzgeb. // Lugau/Erzgeb. // Oberlungwitz",12.702,50.756,102548,97178,88682,78184,72154,64675
696,"Limburg a.d. Lahn // Diez",8.056,50.396,41899,45043,44741,45994,52121,52104
699,"Lingen (Ems)",7.343,52.52,36715,41974,44097,49137,51684,51177
701,"Lippstadt",8.352,51.677,54615,62154,61927,62345,66933,66976
703,"Lohmar",7.248,50.866,10693,18853,23496,27098,30659,31129
711,"Lubeck",10.703,53.887,253842,264888,252321,251311,249774,247059
713,"Ludenscheid",7.639,51.213,75793,79086,74578,79401,80613,75463
718,"Luneburg",10.424,53.25,67880,70457,69685,70533,77004,83236
720,"Magdeburg",11.642,52.117,268036,279544,288446,280536,232694,231525
721,"Mannheim // Ludwigshafen am Rhein",8.468,49.478,563089,610630,571788,586324,587873,597267
723,"Marburg",8.754,50.806,57716,66210,76419,74146,77390,80656
728,"Marl",7.111,51.667,86359,91926,89082,91467,93256,87557
734,"Meerbusch",6.67,51.282,31167,46870,49876,52104,55175,54318
738,"Melle",8.353,52.196,39218,40918,40859,41579,45390,46141
740,"Memmingen",10.175,47.978,37463,41278,40578,41382,45552,45660
741,"Menden (Sauerland)",7.803,51.437,44791,52114,53337,56527,59239,55496
742,"Meppen",7.286,52.703,22914,25894,28135,30508,33412,34944
745,"Merseburg",12.046,51.335,80618,79402,71853,61089,55510,49890
746,"Merzig",6.627,49.446,27734,30194,29714,30031,30869,30355
747,"Meschede",8.248,51.338,26716,31637,31350,31715,32679,30823
748,"Mettmann",6.978,51.257,26193,36415,36676,38998,38708,39300
752,"Minden",8.898,52.301,74984,79104,77713,78145,83079,82114
755,"Monchengladbach",6.412,51.167,257313,264423,258424,259436,263014,257993
759,"Morfelden-Walldorf",8.57,49.985,18593,25152,30182,29538,32173,34035
760,"Mosbach",9.114,49.371,22957,28454,28385,29952,30391,29711
764,"Muhlhausen/Thuringen",10.464,51.226,49126,47588,45658,43072,38695,35978
766,"Munchen",11.532,48.14,1206953,1469502,1522695,1457741,1458135,1619758
767,"Munster",7.624,51.954,219435,253614,269696,259438,265609,279803
773,"Naumburg(Saale)",11.77,51.135,50712,49665,44549,39463,37362,34294
775,"Nettetal // Bruggen",6.25,51.317,31895,36838,37302,38820,41871,41736
777,"Neu-Isenburg",8.663,50.045,25958,36542,35816,35768,35524,36034
778,"Neubrandenburg",13.249,53.542,33005,46087,75939,89284,73318,65282
780,"Neufahrn b. Freising // Eching",11.642,48.318,6770,15679,22955,25367,30181,32321
783,"Neumarkt i.d. OPf.",11.473,49.283,21734,27657,30505,35551,39307,39163
784,"Neumunster",9.984,54.081,80321,85697,80591,81067,79831,76830
787,"Neunkirchen // Schiffweiler // Spiesen-Elversberg",7.194,49.351,115296,115759,105660,103730,102517,95604
788,"Neuruppin",12.836,52.951,32807,31283,32879,33876,32598,31599
791,"Neustadt an der Weinstrasse",8.152,49.342,52315,51820,50328,51988,53917,52855
796,"Nienburg (Weser)",9.232,52.639,29886,31384,29884,30710,32611,31924
799,"Nordhausen",10.81,51.509,47891,51900,53532,52429,46645,44296
800,"Nordhorn",7.093,52.444,43136,48945,48492,49359,51968,53052
802,"Northeim",9.996,51.717,30690,31472,32170,31381,31691,29431
803,"Nurnberg",11.091,49.462,656787,704905,683404,700921,710265,732555
804,"Nurtingen // Wendlingen am Neckar",9.353,48.642,47485,59425,66526,71320,74140,75919
810,"Oberursel (Taunus)",8.555,50.206,29511,43169,48931,50190,52265,53838
813,"Oelde",8.167,51.818,21465,25537,27579,27759,29227,29276
815,"Oer-Erkenschwick",7.24,51.661,23243,24360,27329,28222,30686,30312
817,"Offenburg",7.944,48.478,43218,51707,50486,52964,57455,59215
819,"Oldenburg (Oldenburg)",8.224,53.145,125198,131545,136764,143131,154832,162173
823,"Oranienburg",13.283,52.77,38729,38559,39822,41232,46486,48432
826,"Osnabruck",8.047,52.278,162600,166238,157367,163168,164101,164119
827,"Osterholz-Scharmbeck",8.792,53.256,19285,21266,23632,24705,31206,30198
829,"Ostfildern",9.262,48.718,17198,25474,28748,28678,30858,36163
832,"Paderborn",8.754,51.73,77457,94503,110155,120680,139084,146283
833,"Papenburg",7.402,53.056,22220,26290,27571,30078,34096,35032
836,"Passau",13.415,48.582,47760,49100,50698,50328,50536,50594
837,"Peine",10.226,52.322,47303,49651,47591,46654,49494,48743
841,"Pforzheim",8.71,48.883,114032,131768,131043,138725,145463,148217
842,"Pirmasens",7.594,49.197,59985,57320,49615,47680,45212,40384
845,"Plauen",12.136,50.498,88272,87653,84565,76652,71543,66098
851,"Porta Westfalica",8.952,52.224,31818,34235,34538,35061,36182,35122
853,"Potsdam",13.048,52.403,121646,123725,142542,151806,149136,165684
856,"Pulheim",6.784,51,15491,29678,44870,49353,53158,53769
864,"Radolfzell am Bodensee",8.983,47.765,18673,22450,23709,26476,28862,30782
865,"Rastatt",8.185,48.863,31225,38786,37297,42376,45655,47554
867,"Ratingen",6.876,51.315,52788,68810,89466,91007,91437,91088
868,"Ravensburg // Weingarten",9.606,47.789,58609,70741,74530,79651,83073,85727
871,"Regensburg",12.118,49.016,141306,156319,159730,152762,161190,174220
874,"Rendsburg",9.654,54.297,55581,60006,58298,58687,59936,59105
875,"Reutlingen",9.21,48.483,97307,117231,120681,130456,139045,142228
876,"Rheda-Wiedenbruck",8.306,51.839,32081,36943,37944,38327,44932,47316
879,"Rheinberg",6.61,51.556,19033,23617,26332,27886,31193,31587
880,"Rheine",7.475,52.264,58081,70003,71432,70452,75886,76530
881,"Rheinfelden(Baden)",7.769,47.586,21883,26263,27415,29148,31861,32330
884,"Riesa",13.28,51.297,42869,52723,53051,46776,39367,34013
885,"Rietberg",8.423,51.802,18325,20609,23606,24138,28029,28868
889,"Rodgau",8.882,50.013,17643,29761,35736,40088,43123,43283
890,"Rosenheim",12.117,47.85,54558,65048,73338,80238,85767,89171
893,"Rostock",12.134,54.144,165222,198636,232353,248088,203529,205615
897,"Rottenburg am Neckar",8.908,48.474,23055,28263,31770,36006,41336,42501
901,"Saarlouis // Dillingen/Saar",6.747,49.327,65956,67494,66498,66803,66357,64549
902,"Salzgitter",10.371,52.125,111510,120239,113600,114355,112302,102394
904,"Sangerhausen",11.251,51.518,36143,42716,43966,41909,35167,29679
913,"Schonebeck(Elbe)",11.76,52.026,45210,48400,46895,44025,38659,33888
914,"Schoneiche b. Berlin // Rudersdorf b. Bln. // Woltersdorf",13.799,52.478,33937,34669,32865,30497,34354,35314
918,"Schorndorf",9.516,48.798,30350,36423,40140,44728,46540,46914
924,"Schwabach",11.035,49.327,28655,34301,40453,41338,45020,45787
925,"Schwabisch Gmund",9.82,48.789,56533,60582,61882,65281,67767,66215
926,"Schwabisch Hall",9.761,49.111,28221,30510,31562,32226,35428,37137
930,"Schwarzenberg/Erzgeb.",12.818,50.53,44053,40117,39967,40073,34748,30384
931,"Schwedt/Oder",14.259,53.093,19635,38211,53156,53286,42261,34035
932,"Schweinfurt",10.217,50.05,64501,67149,62629,65196,66345,65244
933,"Schwerin",11.417,53.622,92151,97389,119770,127447,101267,95220
936,"Seelze",9.575,52.386,22294,31224,30336,30974,33192,32782
937,"Seevetal",10.026,53.388,18126,25443,36059,36740,40536,42213
939,"Seligenstadt // Karlstein a. Main",8.988,50.029,23398,30648,30668,33156,35660,37291
943,"Siegburg",7.238,50.805,34223,35166,34616,35441,37638,39746
944,"Siegen",8.035,50.934,160643,172597,166793,164682,166075,158493
946,"Sindelfingen // Boblingen",9.011,48.699,59201,92209,96313,103708,106480,106933
947,"Singen(Hohentwiel)",8.864,47.753,43219,54441,52810,54212,56471,57707
948,"Sinsheim",8.88,49.238,20462,23566,26658,29307,34171,35392
949,"Soest",8.086,51.566,38058,39845,40791,42602,48520,48579
956,"Speyer",8.435,49.33,38359,42184,43864,46553,49776,49857
959,"St.Ingbert",7.132,49.274,41462,44150,41844,40931,39971,37195
961,"Stade",9.46,53.607,35862,39305,42818,42487,44929,46159
968,"Steinfurt",7.369,52.145,27670,29763,32303,31484,33955,33901
970,"Stendal",11.786,52.586,47069,47626,53032,56088,48261,42435
972,"Stralsund",13.08,54.297,65042,71489,74150,72780,60663,57670
973,"Straubing",12.574,48.881,40344,44196,42674,41715,44014,44450
975,"Stuttgart",9.152,48.812,811970,856914,810198,820268,835390,867731
976,"Suhl",10.686,50.623,50298,55700,65851,71098,61061,50523
979,"Taunusstein",8.172,50.155,9656,17045,25659,26977,28745,28963
987,"Trier",6.651,49.754,122452,121848,117951,121564,130053,136668
989,"Tubingen",9.048,48.528,57524,66788,73132,80372,81347,88358
990,"Tuttlingen",8.809,47.978,29374,32208,31531,33543,34707,34282
994,"Uelzen",10.568,52.97,36143,37476,36261,35466,35065,34250
995,"Uetersen // Tornesch",9.692,53.681,24758,28521,30782,34088,37241,37617
997,"Ulm // Neu-Ulm",9.965,48.396,145157,156816,161826,170338,182120,191794
998,"Unna // Kamen",7.709,51.552,85232,92357,100433,107712,117940,110900
1002,"Vechta",8.286,52.741,16312,19691,23053,23300,27753,31516
1003,"Velbert",7.055,51.335,107734,125133,122717,118968,118224,110692
1006,"Viernheim",8.564,49.558,19715,27753,29590,30527,32427,32601
1007,"Viersen",6.361,51.263,79283,85698,81114,77453,77130,75360
1008,"Villingen-Schwenningen",8.452,48.056,68244,79904,78904,78218,81214,81022
1010,"Voerde (Niederrhein)",6.652,51.601,21512,27398,31588,36415,38979,37406
1014,"Waiblingen // Weinstadt",9.356,48.831,52538,70307,77987,82116,87427,89650
1018,"Waldshut-Tiengen // Lauchringen",8.255,47.648,24853,26826,27799,28630,29317,30411
1020,"Waltrop",7.399,51.623,21763,25743,27045,29354,30406,29636
1023,"Warendorf",7.958,51.948,26903,29715,33147,35092,38688,38134
1027,"Wedel // Hamburg",9.706,53.593,24336,29716,30520,30990,32060,32203
1028,"Wegberg",6.249,51.143,18175,22152,24654,25445,28543,29100
1029,"Weiden i.d. OPf.",12.15,49.687,53204,56858,53168,52432,54396,52707
1031,"Weimar",11.318,50.978,68502,67851,67756,64246,62425,65479
1032,"Weinheim",8.686,49.539,39230,43727,45514,46336,46715,47667
1035,"Weissenfels",11.967,51.221,67618,64822,55913,51163,46021,41434
1037,"Werdau // Crimmitschau",12.358,50.76,87751,82357,72596,63522,59975,53145
1040,"Werl",7.909,51.556,23598,25366,25808,28554,31623,31655
1041,"Wermelskirchen",7.218,51.112,29542,33316,34737,35865,37016,35437
1042,"Werne",7.626,51.679,22318,24999,26656,29484,30825,29901
1043,"Wernigerode",10.745,51.817,37540,37363,39651,39858,36739,34383
1046,"Wesel",6.581,51.67,46053,54773,56776,59631,62063,60750
1049,"Wetzlar",8.488,50.583,62644,67322,63349,64044,66632,65099
1050,"Weyhe",8.851,52.989,16435,19291,22890,26050,30240,30362
1053,"Wiesloch // Walldorf",8.682,49.3,25078,33224,35392,36721,39460,40858
1055,"Wilhelmshaven",8.087,53.567,102560,105231,99230,90561,85287,81324
1056,"Willich",6.518,51.263,30574,37870,39115,42416,50300,51949
1058,"Winsen (Luhe)",10.203,53.35,17595,20657,25477,27338,31801,34247
1060,"Wismar",11.463,53.898,52932,56287,57587,55509,47031,44397
1063,"Wittenberg",12.639,51.909,63887,65186,68114,63181,56122,49496
1065,"Wolfen // Bitterfeld",12.289,51.642,75000,74369,73778,71916,57435,45171
1066,"Wolfenbuttel",10.541,52.163,47205,53001,50256,52032,54690,53427
1068,"Wolfsburg",10.785,52.411,94026,131728,125935,128510,121805,121451
1070,"Worms",8.325,49.649,75363,77064,73603,76503,80361,81736
1072,"Wunstorf",9.393,52.437,30877,36033,37676,38276,41474,41014
1073,"Wuppertal // Hagen // Solingen",7.368,51.287,1239527,1297847,1221114,1206383,1180806,1123373
1074,"Wurselen",6.15,50.828,31492,33213,34847,34406,36323,37693
1075,"Wurzburg",9.933,49.789,140507,153647,161382,161950,164199,170664
1077,"Zeitz",12.166,51.049,59462,58420,53499,47732,38991,31556
1080,"Zittau",14.824,50.92,62070,58405,54424,48227,39475,33727
1081,"Zweibrucken",7.365,49.248,38338,38339,34923,33918,35719,33944
1082,"Zwickau",12.496,50.717,175167,166399,155917,144062,124327,112864
1085,"Lindau (Bodensee)",9.717,47.567,32120,35888,36669,40138,40804,42350
1087,"Lorrach // Weil am Rhein // Saint-Louis",7.614,47.606,101206,120675,118348,120588,129042,135378
1089,"Saarbrucken",6.923,49.23,445307,439463,409703,403050,384938,363376
1090,"Aachen",6.093,50.761,225590,243983,254564,252603,255207,268534
1092,"Frankfurt (Oder)",14.568,52.345,69881,78975,95897,104368,92037,80270
1093,"Gorlitz // Zgorzelec",14.964,51.156,116078,123858,121558,113304,96949,90669
1094,"Guben // Gubin",14.699,51.957,38990,44890,52735,50111,41226,36363
1096,"Aalborg",9.919,57.06,118841,127586,120109,120123,123943,130227
1098,"Arhus",10.187,56.174,172219,201856,196909,209679,227008,242503
1101,"Esbjerg",8.436,55.505,55075,65224,71811,73541,74270,73397
1103,"Fredericia",9.721,55.56,23904,31524,33774,33692,39359,40064
1109,"Helsingor",12.583,56.03,27977,32871,32098,31495,33148,33616
1111,"Herning",8.979,56.144,21547,35549,37089,40234,41119,44209
1112,"Hillerod",12.297,55.916,17734,21795,28089,28129,30749,33139
1116,"Holstebro",8.622,56.364,18587,23051,26106,29508,30770,30176
1117,"Horsens",9.832,55.842,39581,43708,43648,42974,44540,48648
1120,"Kobenhavn",12.467,55.69,1309944,1342665,1217614,1166532,1220330,1283699
1121,"Koge // Solrod",12.156,55.464,18800,34694,44344,48777,51142,53908
1122,"Kolding",9.463,55.485,35074,39086,49841,51397,55267,58356
1125,"Naestved",11.758,55.216,26885,33551,40500,40355,41537,43864
1129,"Odense",10.377,55.389,127749,143274,146183,150711,159915,167957
1131,"Randers",10.055,56.457,55020,57415,54367,52505,55676,56453
1134,"Roskilde",12.087,55.655,28666,37831,41192,41734,44971,48769
1135,"Silkeborg",9.549,56.181,25250,30562,32711,34200,36647,40358
1138,"Slagelse",11.358,55.407,20611,25527,29010,29994,31751,32037
1142,"Vejle",9.547,55.718,38042,42575,44329,46680,49299,53535
1143,"Viborg",9.4,56.45,23560,28372,30265,31256,33918,37434
1146,"Kohtla-Jarve",27.339,59.365,45375,53754,57757,58896,47033,38000
1149,"Narva",28.109,59.354,31485,59163,74365,78891,68110,59462
1150,"Parnu",24.526,58.384,37677,46628,50153,51126,45189,40195
1153,"Tallinn",24.758,59.462,298043,371397,441613,469866,408714,411113
1154,"Tartu",26.728,58.37,76843,91756,106094,111181,101003,97904
1159,"Aguilas",-1.59,37.468,15250,17389,20540,24539,27511,33788
1160,"Albacete",-1.892,38.956,73097,91579,114632,133158,147667,169950
1161,"Alcala de Guadaira",-5.806,37.29,31004,33999,45145,52391,57027,71841
1162,"Alcala de Henares",-3.37,40.495,25123,59783,140898,162437,175329,198382
1163,"Alcantarilla // Murcia",-1.232,37.972,15748,19895,24327,29969,33953,40762
1164,"Alcoy/Alcoi",-0.517,38.682,51096,61371,65833,64600,58821,60516
1168,"Algeciras",-5.479,36.107,66317,81662,85971,101284,101475,116251
1170,"Alhaurin de la Torre",-4.583,36.662,5662,6388,7623,12992,22338,35629
1171,"Alicante/Alacant",-0.54,38.382,135540,208396,284053,319007,339054,400555
1172,"Almendralejo",-6.41,38.708,20884,21929,23600,24112,27239,33626
1173,"Almeria",-2.35,36.877,89494,117655,143734,163147,173597,203021
1175,"Alzira",-0.451,39.137,26669,32876,37369,40011,39698,44223
1177,"Andujar",-4.05,38.224,32185,31464,34888,35789,36404,38611
1178,"Aranda de Duero",-3.685,41.69,14231,18886,27432,29415,29903,32951
1179,"Aranjuez",-3.679,39.995,27251,29548,35824,35873,40390,54529
1181,"Arganda del Rey",-3.445,40.292,6277,11876,21727,26143,32804,51699
1182,"Arona // Adeje",-16.703,28.103,11728,17630,29426,69844,61730,112009
1184,"Arrecife",-13.565,28.979,12886,21906,29363,33331,43948,54430
1185,"Arucas",-15.523,28.12,25986,24030,25741,25983,31907,36392
1187,"Avila",-4.646,40.662,28867,32379,41567,49725,49724,58600
1188,"Aviles",-5.894,43.532,58316,94311,104872,101708,99268,99131
1191,"Azuqueca de Henares",-3.263,40.557,1613,5745,9646,11955,19814,33123
1192,"Badajoz",-6.85,38.868,95526,100051,112004,127300,134691,151700
1196,"Barcelona",2.078,41.452,2165137,2939195,3358565,3295052,3149410,3437871
1203,"Benidorm",-0.129,38.555,6259,12124,25243,74018,53404,66525
1208,"Bilbao",-2.952,43.273,543912,784994,897951,874712,834261,834872
1209,"Blanes",2.783,41.689,9492,16020,20104,25314,30244,38508
1210,"Burgos",-3.682,42.352,82727,119915,155789,168899,166413,177773
1211,"Burriana",-0.074,39.89,18616,22651,24964,25431,26652,34266
1212,"Caceres",-6.46,39.372,52543,59265,74056,86445,85070,96494
1213,"Cadiz",-6.266,36.494,117871,135743,157390,157362,135095,124767
1214,"Calafell // Cunit",1.603,41.209,2466,3773,5535,9403,18773,35156
1217,"Calpe/Calp // Teulada // Benissa",0.059,38.69,10094,12052,18369,24789,35974,46033
1218,"Calvia",2.508,39.551,3005,4890,21496,36860,36069,48477
1219,"Camas",-6.033,37.415,19468,26266,30973,31756,32037,34589
1221,"Cambrils // Salou",1.073,41.082,6426,11131,17947,23047,34023,56949
1225,"Carballo",-8.669,43.212,22131,23508,23916,24882,27875,31017
1229,"Cartagena",-0.99,37.639,123630,146904,172307,173056,183752,212982
1232,"Castelldefels",1.971,41.277,3920,13219,24319,32865,45211,60398
1233,"Castellon de la Plana/Castello de la Plana",-0.051,39.987,72671,107025,141042,153583,164093,198429
1234,"Castro-Urdiales",-3.23,43.352,11988,12401,12904,13564,20370,31338
1235,"Catarroja // Paiporta // Alfafar // Silla // Valencia // Benetusser // Albal // Picanya // Sedavi",-0.398,39.39,52008,84368,114441,118852,125107,150185
1237,"Ceuta",-5.343,35.894,73182,67187,70804,73170,71636,82444
1238,"Chiclana de la Frontera",-6.11,36.4,21524,27337,36042,46420,59759,78907
1241,"Cieza",-1.47,38.274,22438,25359,29853,30300,32797,35008
1242,"Ciudad Real",-3.974,38.971,37081,41708,50953,59980,63003,74008
1243,"Collado Villalba",-3.988,40.641,5425,8134,18454,26123,44916,59658
1244,"Colmenar Viejo",-3.746,40.664,4086,6299,10243,19173,33581,45110
1246,"Cordoba",-4.702,37.849,198148,235632,283882,310054,308260,326590
1247,"Coria del Rio",-6.035,37.247,15083,18910,19792,21766,23857,29344
1249,"Coruna, A",-8.375,43.308,204080,217332,268794,297913,304307,330021
1251,"Cuenca",-1.987,40.223,30864,36705,42765,46972,47284,56447
1253,"Denia",0.08,38.824,12185,16484,22058,25106,32618,41868
1255,"Don Benito",-5.893,38.943,25248,26295,28383,28598,31299,36491
1256,"Donostia-San Sebastian",-1.906,43.287,175032,229099,251533,249073,247666,255733
1257,"Dos Hermanas",-5.963,37.257,27696,39387,57016,77611,99877,125992
1258,"Durango",-2.653,43.179,14417,22354,26037,27345,28994,31946
1260,"Ibiza",1.419,38.914,11259,16943,25324,30290,34457,47226
1261,"Ejido, El",-2.781,36.748,13311,19613,30209,41488,56416,78622
1262,"Elche/Elx",-0.665,38.247,73320,122663,162141,187168,194198,224502
1263,"Elda // Petrer",-0.759,38.487,38766,57315,72275,78292,81422,88408
1268,"Ferrol",-8.2,43.495,126126,145802,157577,151580,145183,144475
1269,"Figueres",2.964,42.264,17797,22557,30386,38112,37409,48812
1270,"Fuengirola",-4.615,36.558,8492,20597,30414,42811,49123,69826
1271,"Fuenlabrada",-3.806,40.273,3671,8510,77710,150350,189360,213719
1272,"Galapagar",-3.997,40.563,3057,5000,7633,11556,28664,40215
1273,"Gandia",-0.215,38.984,26920,37292,49122,52842,60480,77555
1276,"Gijon",-5.682,43.5,124714,187612,254708,260197,265934,276075
1277,"Girona",2.827,41.986,45462,64276,87216,95444,99481,127486
1278,"Granada",-3.57,37.139,189021,229368,308339,354163,336753,373509
1279,"Granollers // Mollet del Valles",2.242,41.584,40726,96794,154369,187966,219176,260219
1280,"Guadalajara",-3.141,40.608,23017,32381,53332,63924,67916,82924
1283,"Huelva",-6.93,37.273,74384,96689,127241,144291,142462,147340
1284,"Huesca",-0.43,42.128,25236,33691,44178,49987,46532,51523
1287,"Igualada",1.596,41.565,21878,38537,47791,51022,52207,60580
1288,"Inca",2.942,39.712,13816,16930,20655,20420,22814,29669
1289,"Ingenio",-15.443,27.93,10899,15407,20292,21662,24212,29512
1291,"Jaen",-3.753,37.808,64917,78156,96108,107226,112177,116141
1293,"Jerez de la Frontera",-5.968,36.682,127921,146456,171784,180037,183029,209250
1295,"Langreo",-5.663,43.288,94118,86193,81071,75189,66647,62252
1299,"Leon",-5.638,42.612,81163,119041,148976,168929,157828,162534
1300,"Linares",-3.637,38.096,60068,50516,54481,58352,57643,60524
1301,"Linea de la Concepcion, La",-5.346,36.191,59456,52127,56213,58607,59375,64893
1303,"Lleida",0.581,41.631,63850,90884,109248,119215,112743,134996
1305,"Lloret de Mar",2.835,41.722,3627,7064,10415,22228,20407,37140
1306,"Logrono",-2.454,42.464,61292,84456,110499,128030,132683,150958
1307,"Lorca",-1.754,37.699,58641,60609,60627,66916,76606,90557
1308,"Lugo",-7.565,43.001,58264,63830,73813,87366,88351,97165
1309,"Madrid",-3.704,40.441,2329474,3410444,3879365,3894686,3868072,4246448
1310,"Malaga",-4.424,36.768,282399,351256,469864,533608,525208,558256
1313,"Manresa",1.818,41.733,54848,63148,74204,74850,73425,85842
1314,"Marbella",-5.019,36.489,25300,54366,91265,120183,141255,194128
1317,"Masnou, El // Alella",2.307,41.497,9709,14735,19947,28822,34116,37826
1318,"Massamagrell // Rafelbunol/Rafelbunyol // Museros",-0.35,39.578,11773,16374,20844,21279,23070,30164
1319,"Mataro",2.434,41.546,41128,73129,96043,104280,109657,126305
1321,"Mejorada del Campo // Velilla de San Antonio",-3.475,40.384,3376,4988,10911,15850,24322,33642
1323,"Melilla",-2.931,35.287,79056,64942,58547,63582,66193,79963
1324,"Merida",-6.409,38.975,49684,52662,53767,63834,64374,71841
1325,"Mieres",-5.754,43.233,70871,64552,58195,53246,48123,42842
1326,"Mijas",-4.685,36.56,7483,9319,14785,32418,45015,71183
1327,"Miranda de Ebro",-2.964,42.673,28292,33905,36764,37191,36023,38134
1329,"Molina de Segura",-1.199,38.123,16308,23178,31173,37678,46121,64837
1334,"Mostoles",-3.918,40.344,5101,20954,150712,205244,217884,229192
1335,"Motril",-3.484,36.743,24734,31716,39641,45774,50853,59639
1336,"Murcia",-1.107,37.922,243575,237744,287743,337384,368102,431663
1345,"Olot",2.494,42.177,17664,21626,24836,26584,27944,33056
1347,"Ontinyent",-0.655,38.813,18787,23685,28046,29488,32406,36776
1348,"Orihuela",-0.909,38.067,40675,40950,45364,52167,57350,81504
1349,"Orotava, La",-16.577,28.299,22371,26840,31316,34812,37506,41220
1350,"Ourense",-7.894,42.338,67870,77029,99356,112221,114081,117032
1351,"Oviedo",-5.874,43.35,127058,154117,189490,204039,201396,222916
1352,"Palacios y Villafranca, Los",-5.921,37.15,12524,18484,24080,29324,32747,37307
1353,"Palencia",-4.548,41.974,48216,58370,73800,85821,84861,87162
1354,"Palma de Mallorca",2.715,39.556,159084,234098,303154,308548,331765,395867
1355,"Palmas de Gran Canaria, Las",-15.456,28.091,193862,287038,365034,360579,355298,379000
1357,"Pamplona /  Iruna",-1.607,42.796,105528,174692,216704,243292,252801,277969
1358,"Parla",-3.767,40.231,1781,10213,54442,69794,78457,117732
1361,"Picassent // Alcacer",-0.482,39.351,13112,16592,20182,21769,23719,29117
1362,"Pineda de Mar // Calella",2.661,41.628,11665,17472,22396,27794,34174,43350
1363,"Pinto",-3.685,40.247,5360,9761,18400,22239,30520,44752
1364,"Plasencia",-6.141,40.015,21297,27174,32092,36746,36701,40770
1365,"Ponferrada",-6.564,42.497,40634,47798,52421,59578,61979,67843
1366,"Pontevedra",-8.62,42.437,50483,52452,64913,74975,74958,81703
1368,"Premia de Mar",2.353,41.518,11455,19578,30434,38941,47726,53647
1369,"Puente Genil",-4.761,37.403,30185,26442,25628,25963,27840,30106
1370,"Puerto de la Cruz",-16.547,28.408,15248,45970,39340,39544,27284,30908
1371,"Puerto de Santa Maria, El",-6.277,36.644,52361,65996,82422,96554,100912,116673
1372,"Puerto del Rosario",-13.951,28.511,6098,6680,13718,16830,20914,34354
1373,"Puerto Real",-6.111,36.524,18138,19569,23855,29806,35287,40809
1374,"Puertollano",-4.061,38.65,53136,53001,48812,49447,48192,51593
1375,"Realejos, Los",-16.586,28.355,17777,21741,25652,29416,33111,37159
1376,"Redondela",-8.614,42.278,17206,22128,27113,27742,28903,29867
1378,"Reus",1.12,41.149,41014,59095,80311,88462,88974,105236
1379,"Rincon de la Victoria",-4.27,36.731,5137,6061,7901,12904,24023,39421
1380,"Rivas-Vaciamadrid",-3.528,40.34,1207,1007,657,14189,33389,69534
1381,"Ronda",-5.139,36.788,32953,33298,34508,39008,38092,40391
1382,"Roquetas de Mar",-2.617,36.776,7013,12776,18886,32084,48418,82917
1384,"Rozas de Madrid, Las",-3.901,40.536,4767,7249,16777,41761,75195,109103
1387,"Sagunto/Sagunt",-0.277,39.69,40293,47026,54627,55937,59285,70634
1388,"Salamanca",-5.661,40.952,94021,125220,168912,192817,172179,172601
1389,"San Bartolome de Tirajana",-15.583,27.841,13384,19846,52020,60187,36051,51530
1390,"San Fernando",-6.205,36.453,52389,60187,78507,91473,88350,96029
1392,"San Pedro del Pinatar // San Javier",-0.827,37.815,13564,14819,18766,27330,35975,53968
1393,"San Roque",-5.35,36.258,17126,17727,20555,23050,23409,29350
1394,"San Sebastian de los Reyes",-3.599,40.575,3350,15447,39270,53534,61212,78812
1395,"Sanlucar de Barrameda",-6.308,36.807,40335,41072,48368,56895,59997,66622
1397,"Sant Boi de Llobregat // Viladecans",2.015,41.309,43201,98747,150198,161076,174216,192337
1400,"Sant Feliu de Guixols",3.032,41.805,10307,14981,19181,20845,24459,31471
1402,"Santa Cruz de Tenerife // San Cristobal de la Laguna",-16.273,28.515,194661,236636,308591,328063,326764,363813
1404,"Santa Lucia de Tirajana",-15.471,27.884,21557,30636,39955,48565,66042,93582
1407,"Santa Pola",-0.577,38.204,6443,9198,11971,15304,19396,31144
1409,"Santander",-3.861,43.437,141500,177784,213628,234053,228995,238507
1410,"Santiago de Compostela",-8.517,42.911,62966,70893,93281,105643,91321,94952
1412,"Segovia",-4.169,40.902,36422,44162,53079,57543,54615,54897
1414,"Sevilla",-5.979,37.383,467496,586652,711787,789055,791530,823119
1416,"Soria",-2.715,41.828,19589,25219,31917,35481,35181,39831
1419,"Talavera de la Reina",-4.849,39.954,33401,45327,63783,69052,74863,86579
1420,"Tarragona",1.261,41.131,43413,78238,111059,112783,113104,136575
1423,"Telde",-15.43,27.983,32177,44667,63088,77387,87098,99916
1425,"Teruel",-1.12,40.356,21800,23030,28134,31020,31151,35262
1426,"Toledo",-4.015,39.87,40651,44382,57528,63463,67993,82459
1427,"Tolosa // Andoain",-2.052,43.169,26053,37501,47692,46220,44615,46289
1428,"Tomelloso",-2.97,39.208,27815,26094,26646,27915,30433,37381
1430,"Torrelavega",-4.07,43.344,44332,55913,68778,71869,69997,74006
1431,"Torremolinos // Benalmadena",-4.543,36.609,21374,32979,48634,60831,77731,122669
1432,"Torrent",-0.522,39.418,24042,39724,51152,56110,64646,79418
1434,"Torrevieja",-0.705,38,9234,9726,12268,25582,48333,85922
1435,"Tortosa",0.556,40.821,23300,24975,28043,29690,28993,33928
1436,"Tres Cantos",-3.726,40.611,4289,6611,10751,20125,35248,40802
1437,"Tudela",-1.644,42.081,16456,20942,24566,26138,29607,34569
1441,"Valdemoro",-3.657,40.183,4411,6263,13029,17865,31619,65224
1442,"Valencia",-0.41,39.457,621129,840880,1006907,1055941,1043751,1140616
1443,"Vall d'Uixo, la",-0.235,39.814,18596,24105,26111,27367,28838,32401
1444,"Valladolid",-4.74,41.626,151807,236341,328491,345632,318774,312087
1446,"Velez-Malaga",-4.143,36.774,35061,42454,41787,51964,56736,75042
1447,"Vendrell, El",1.507,41.205,6124,8903,11548,17458,28634,44382
1448,"Vic",2.237,41.922,20303,25906,29986,29128,32408,40234
1449,"Vigo",-8.755,42.169,159584,214079,279555,301396,306783,323875
1450,"Vilafranca del Penedes",1.701,41.348,11985,17546,24879,27967,30983,38142
1451,"Vilagarcia de Arousa",-8.751,42.597,20771,24076,29359,31721,33357,37143
1452,"Vilanova i la Geltru",1.705,41.237,25669,35714,43423,45845,53528,64996
1454,"Villajoyosa/Vila Joiosa, la",-0.251,38.521,11006,16258,20560,23117,23618,31785
1457,"Villarreal/Vila-real",-0.129,39.933,22363,30301,34934,37616,42048,49998
1459,"Viso del Alcor, El // Mairena del Alcor",-5.734,37.358,18439,21449,25227,29794,32885,40139
1460,"Vitoria-Gasteiz",-2.688,42.85,74936,137990,191752,209419,216286,238667
1464,"Zamora",-5.806,41.516,42342,49029,59547,68056,65101,65369
1465,"Zaragoza",-0.927,41.682,324962,477854,586359,619267,612931,672381
1469,"Irun",-1.797,43.339,45444,64103,74943,79448,84365,92320
1473,"Hameenlinna = Tavastehus",24.576,61.075,56326,57026,59224,61222,63033,66829
1476,"Helsinki = Helsingfors",24.856,60.268,565780,708384,783549,855448,986018,1079545
1477,"Hyvinkaa = Hyvinge",24.82,60.609,27109,34282,37297,40194,42545,45489
1480,"Jarvenpaa = Traskanda",25.101,60.481,12225,16259,23281,31525,35915,38680
1481,"Joensuu",30.354,62.608,54973,59039,63969,67363,71013,73305
1482,"Jyvaskyla",25.641,62.152,74098,86595,96966,103921,116519,130816
1483,"Kajaani = Kajana",27.455,64.112,29179,33461,38016,39577,38912,38157
1484,"Kemi",24.765,65.859,33797,33546,34649,34517,32619,31110
1486,"Kokkola = Karleby",23.654,63.796,32183,37953,41848,43267,44182,46260
1487,"Kotka",26.887,60.569,56891,60334,60752,56634,54846,54824
1488,"Kouvola // Kuusankoski",26.773,60.94,88582,92282,94529,94352,91550,88072
1489,"Kuopio",27.654,62.84,65394,73221,80172,86372,92272,96793
1490,"Lahti = Lahtis",25.683,60.978,66802,88393,94767,93151,96921,101588
1491,"Lappeenranta = Villmanstrand",28.239,60.946,60001,65859,68814,68662,70587,71982
1492,"Lohja = Lojo",23.998,60.278,20926,26472,31076,34592,36446,39714
1494,"Mikkeli = S:t_Michel",27.227,61.829,41236,43627,45821,48108,49205,48751
1496,"Oulu = Uleaborg",25.986,65.082,83591,100318,114776,127064,150295,173631
1499,"Pori = Bjorneborg",21.929,61.549,80248,90542,97922,96960,96321,96638
1500,"Porvoo = Borga",25.677,60.387,27450,32224,38296,41930,44969,48768
1502,"Rauma = Raumo",21.695,61.085,32319,36792,42973,42410,41001,39715
1504,"Rovaniemi",25.839,66.638,45264,45331,48056,54014,57253,60090
1505,"Salo",23.27,60.357,49079,47440,47638,49834,52604,55235
1507,"Seinajoki",22.904,62.742,33817,37596,42497,47182,50670,57811
1508,"Tampere = Tammerfors",23.717,61.513,171088,198850,212166,224596,251440,282689
1509,"Turku = Abo",22.334,60.489,163728,192822,212376,219312,239199,251471
1510,"Vaasa = Vasa",21.595,63.077,44078,49410,53758,53429,56737,59587
1516,"Agen",0.625,44.204,42412,50470,51233,51507,52901,58322
1517,"Aix-en-Provence",5.399,43.536,64192,97612,119485,124760,135410,142124
1518,"Aix-les-Bains",5.918,45.692,17658,21257,23240,30012,34096,37615
1519,"Ajaccio",8.701,41.935,31921,45644,53220,58364,54825,66854
1521,"Albi",2.172,43.932,43676,52175,57434,61272,62079,65645
1522,"Alencon",0.065,48.432,24488,32464,37998,36582,37656,35300
1523,"Ales",4.103,44.141,44846,51571,53523,55073,54311,57549
1526,"Amiens",2.298,49.895,110873,137962,149300,150703,154902,153631
1528,"Angers",-0.562,47.461,138315,169593,188062,199799,210642,207794
1529,"Angouleme",0.144,45.648,81448,90997,100257,99589,100253,100836
1531,"Annecy",6.108,45.909,57214,82951,101177,115985,124511,133034
1532,"Annemasse",6.26,46.194,27552,45279,59972,70416,75566,85925
1532,"Ferney-Voltaire // Saint-Genis-Pouilly",6.025,46.243,4019,9002,14862,23708,28310,36077
1537,"Arles",4.656,43.555,41183,47471,50426,54191,53470,55805
1538,"Arras",2.764,50.291,51291,69854,74556,74247,75403,77165
1543,"Aurillac",2.456,44.895,26901,32916,35706,36071,35720,33795
1545,"Auxerre",3.575,47.808,30551,39279,45628,46144,44875,43316
1546,"Avignon",4.857,43.975,101036,136243,153511,161471,167128,177346
1547,"Avon // Fontainebleau",2.694,48.411,27750,31813,30732,29622,38885,38629
1554,"Bastia",9.424,42.687,30043,40350,48598,46609,48402,55219
1556,"Bayonne // Anglet // Biarritz",-1.488,43.501,86612,104359,114618,121862,127199,132859
1557,"Beaucaire // Tarascon",4.637,43.786,19028,23271,23511,24415,26867,29523
1559,"Beauvais",2.087,49.436,31893,49675,52648,54299,55277,54649
1560,"Belfort",6.845,47.644,56751,67536,71536,70658,71812,72273
1564,"Bergerac",0.497,44.856,26938,29417,28865,29149,28501,29621
1566,"Besancon",6.027,47.259,92382,116054,116790,117053,120657,120045
1567,"Bethune // Noeux-les-Mines",2.664,50.516,59762,62907,62365,61219,64341,64535
1568,"Beziers",3.231,43.348,72175,81906,77827,70825,69453,71124
1572,"Blois",1.342,47.583,34844,51839,58674,62460,62841,60974
1577,"Bordeaux",-0.633,44.861,476938,549349,574384,608973,647313,696151
1579,"Boulogne-sur-Mer",1.613,50.701,87872,93105,93424,89925,90521,86673
1580,"Bourg-en-Bresse",5.223,46.221,34178,48186,52836,55275,56588,57668
1581,"Bourges",2.392,47.084,63144,79165,84267,84453,80464,75058
1582,"Bourgoin-Jallieu",5.306,45.597,15192,20743,24994,25638,27293,30734
1583,"Brest",-4.531,48.401,134755,165449,172307,168093,169446,161759
1585,"Brive-la-Gaillarde",1.535,45.152,41180,52263,57342,56196,55828,56759
1586,"Bruay-la-Buissiere // Auchel",2.52,50.495,110401,100609,89113,83141,79512,78132
1587,"Bruz // Chartres-de-Bretagne",-1.707,48.036,7508,11034,15406,20627,29324,34197
1588,"Caen",-0.354,49.179,109206,159482,181767,186944,193828,189066
1590,"Calais",1.88,50.945,80342,89602,92577,95901,98057,95646
1591,"Cambrai",3.229,50.176,37872,45686,49283,47127,46858,45298
1593,"Carcassonne",2.344,43.209,40360,43015,41318,43514,44515,47753
1596,"Carpentras",5.061,44.059,17605,22509,24740,24379,26601,29591
1597,"Castres",2.23,43.612,36301,42618,47782,47622,46577,45516
1603,"Chalon-sur-Saone",4.828,46.787,48227,62192,69363,67655,63345,58891
1604,"Chalons-en-Champagne",4.364,48.956,40054,54953,61225,59312,57534,54769
1605,"Chambery",5.91,45.578,56079,76099,90196,98888,106631,112077
1607,"Charleville-Mezieres",4.723,49.769,52294,60674,62009,60455,57992,52710
1608,"Chartres // Luce",1.481,48.451,45720,62019,72686,83081,84791,85356
1614,"Chateauroux",1.699,46.824,50972,56901,59952,58739,57086,53730
1615,"Chatellerault",0.553,46.816,29672,36311,36042,34627,33840,32309
1618,"Cherbourg // Equeurdreville-Hainneville // Tourlaville // Octeville",-1.621,49.632,68935,80446,84924,91718,87510,81887
1619,"Cholet",-0.878,47.046,36365,46563,55092,55046,54186,54088
1621,"Clermont-Ferrand",3.121,45.779,168663,224654,253794,252982,257065,259013
1623,"Cluses",6.529,46.074,13531,21388,30860,35078,39013,42043
1625,"Colmar",7.345,48.097,62002,77229,81020,82463,85705,88900
1626,"Compiegne",2.845,49.417,31555,40342,56879,61415,63710,64141
1629,"Creil // Nogent-sur-Oise",2.453,49.226,60223,95167,111155,118156,120758,125973
1632,"Dax // Saint-Paul-les-Dax",-1.05,43.74,21508,25942,27617,31081,35147,39562
1633,"Dieppe",1.087,49.922,36282,39204,36518,35778,34185,31725
1635,"Dijon",5.038,47.316,147206,195099,213038,224174,228519,229143
1641,"Douai",3.074,50.373,136947,151706,147874,143055,139783,137461
1643,"Draguignan",6.455,43.536,13836,19569,25719,30417,33403,36739
1644,"Dreux",1.357,48.739,20260,36255,43252,46568,43248,42731
1645,"Dunkerque",2.344,51.025,122905,149155,164531,159708,157046,147168
1646,"Elbeuf // Caudebec-les-Elbeuf // Saint-Aubin-les-Elbeuf // Saint-Pierre-les-Elbeuf",0.956,49.302,37791,44904,48314,49445,57190,57472
1648,"Epinal",6.468,48.168,41989,48907,49024,47402,46325,43992
1652,"Evreux",1.147,49.029,35595,47049,48853,52446,54762,54607
1662,"Frejus // Saint-Raphael",6.789,43.466,31977,48065,59153,74822,85163,92826
1665,"Gap",6.065,44.58,20278,25999,30256,33693,36826,40082
1666,"Gardanne",5.456,43.447,11004,19353,28361,37783,41894,45232
1672,"Grenoble",5.73,45.186,232244,330350,369214,381243,395069,402811
1677,"Haguenau",7.831,48.842,19980,23816,26377,28066,32576,34475
1681,"Hyeres",6.137,43.124,31057,40092,44513,55573,60603,64936
1684,"Istres",4.951,43.55,8826,15156,26483,35498,39569,42888
1691,"La Ciotat",5.622,43.206,17924,27168,34342,33768,35702,38199
1697,"La Roche-sur-Yon",-1.408,46.668,28375,39361,45034,45576,49819,52990
1698,"La Rochelle",-1.142,46.162,73116,86438,94352,93135,101778,104230
1699,"La Teste-de-Buch // Gujan-Mestras // Arcachon",-1.121,44.571,30753,36952,42270,47724,55303,62222
1703,"Laval",-0.798,48.072,38085,51095,60938,64239,66561,67960
1704,"Le Creusot",4.45,46.789,38220,41131,42812,38742,35116,31343
1705,"Le Havre",0.17,49.504,217208,248653,244753,239740,230856,215406
1706,"Le Mans",0.184,47.988,137447,169116,176728,171983,174811,170471
1707,"Le Puy-en-Velay",3.904,45.022,28708,35587,38303,38606,37158,35386
1708,"Lens // Lievin // Henin-Beaumont // Avion // Carvin",2.869,50.442,371277,367726,352442,345124,338523,331038
1710,"Les Sables-d'Olonne // Chateau-d'Olonne // Olonne-sur-Mer",-1.764,46.52,25780,29217,32145,35618,38939,41919
1714,"Limoges",1.26,45.842,125754,154866,170854,170346,174711,182835
1717,"Lorient",-3.401,47.742,86691,101427,104158,107157,107467,105354
1719,"Louviers // Val-de-Reuil",1.185,49.248,12754,16485,24497,33258,37100,36845
1721,"Lunel",4.119,43.682,8531,11767,15260,21105,26077,29325
1724,"Lyon",4.867,45.75,880325,1076873,1181913,1234501,1305361,1403558
1725,"Macon",4.818,46.321,28595,36223,38559,37008,34396,34001
1729,"Marseille",5.458,43.314,807950,969947,974666,907822,920962,976447
1730,"Martigues // Port-de-Bouc",5.071,43.386,37095,55963,71617,72288,72347,76895
1731,"Maubeuge // Hautmont",3.978,50.268,66268,75328,78763,75546,71772,66941
1735,"Meaux",2.906,48.952,23068,39325,52931,61875,66775,69789
1739,"Metz",6.13,49.255,368331,422669,417940,413318,421833,422419
1744,"Mont-de-Marsan",-0.505,43.888,19413,30092,33388,35516,37208,40497
1745,"Montargis // Chalette-sur-Loing // Amilly",2.732,48.007,31881,42235,47969,48667,53347,54183
1746,"Montauban",1.358,44.013,40067,46737,50231,53564,55372,60377
1747,"Montbeliard // Audincourt // Valentigney",6.813,47.479,87949,113457,120363,110160,107250,102812
1749,"Montceau-les-Mines // Saint-Vallier",4.346,46.676,51059,49281,49516,45157,41214,39234
1750,"Montelimar",4.748,44.554,18839,27273,28975,30105,31979,35705
1752,"Montlucon",2.584,46.33,58907,61951,57889,50952,47488,44808
1753,"Montpellier",3.861,43.631,116045,186751,224099,261582,296792,333555
1755,"Moulins // Yzeure",3.359,46.572,33193,40765,41785,40002,38184,36293
1756,"Mulhouse",7.356,47.765,158275,185205,199935,207916,213778,216679
1758,"Nancy",6.152,48.711,223757,260452,275520,277448,279570,277702
1759,"Nantes",-1.59,47.231,345154,419890,462098,496416,545030,573912
1760,"Narbonne",3.02,43.165,33025,38805,41187,45909,47243,51479
1763,"Nevers",3.157,47.019,44561,54218,56882,55977,53819,49532
1764,"Nice",7.083,43.662,460825,625249,726059,803627,835945,878735
1765,"Nimes",4.349,43.835,95528,127937,137206,146643,154293,165099
1766,"Niort",-0.442,46.321,47109,58459,65197,65817,66481,68783
1771,"Orange",4.81,44.129,19071,24888,26308,27057,28179,29243
1772,"Orleans",1.915,47.904,129664,177153,208447,238293,256744,262166
1774,"Oyonnax",5.664,46.266,14466,21346,27504,30542,30984,29521
1775,"Ozoir-la-Ferriere // (Brie-Comte-Robert 2001)",2.622,48.728,3752,9233,22950,29863,48137,50969
1777,"Paris",2.314,48.838,7514899,8436404,8880193,9463377,9744904,10416084
1780,"Pau",-0.38,43.314,79959,112803,122841,132213,136449,141993
1781,"Perigueux",0.699,45.168,47073,49995,51880,50960,53295,54959
1782,"Perpignan",2.907,42.702,79555,106178,119497,117671,120956,135681
1787,"Poitiers",0.343,46.596,68472,87145,94531,96842,105987,111338
1796,"Quimper",-4.091,47.997,44755,53885,56751,59776,63290,63579
1800,"Reims",4.046,49.254,136529,177321,198868,209292,214308,207920
1802,"Rennes",-1.659,48.116,154334,201350,218371,231838,246707,255272
1805,"Roanne",4.057,46.046,69813,76707,79919,74040,70721,69282
1807,"Rochefort",-0.921,45.945,34147,35157,35312,35065,35390,36315
1808,"Rodez",2.561,44.377,20462,29561,33434,34333,33851,35135
1809,"Romans-sur-Isere",5.044,45.047,33091,40760,41580,44062,44867,46351
1812,"Rouen",1.076,49.413,311812,369546,372741,371838,379719,378830
1814,"Royan",-1.037,45.635,19698,21402,26613,27470,29237,31039
1821,"Saint-Brieuc",-2.77,48.509,55554,72879,80361,80499,82678,86628
1822,"Saint-Chamond // Rive-de-Gier",4.542,45.489,68643,78267,80126,79214,76804,76618
1825,"Saint-Etienne",4.369,45.434,295174,315117,304372,294164,269174,257847
1829,"Saint-Just-Saint-Rambert // Andrezieux-Boutheon // Veauche",4.257,45.516,13538,17172,26657,35002,36658,38446
1833,"Saint-Malo",-1.981,48.64,40632,43388,46126,48292,49919,45961
1835,"Saint-Nazaire",-2.283,47.292,96820,107880,114152,113787,117543,119924
1836,"Saint-Omer // Longuenesse // Arques",2.276,50.742,36483,44492,49844,48993,49702,47432
1837,"Saint-Quentin",3.28,49.842,63820,70173,69784,66223,64125,61128
1841,"Salon-de-Provence",5.113,43.612,19859,34521,38550,40591,45019,52251
1849,"Sens",3.285,48.199,19445,28673,32563,33754,33548,31939
1850,"Sete // Frontignan",3.71,43.426,43321,53775,58053,62889,65616,72941
1851,"Soissons",3.338,49.378,27933,36949,42227,41117,39955,39319
1855,"Tarbes",0.082,43.237,57370,70666,73904,69917,68178,66155
1859,"Thonon-les-Bains",6.526,46.382,16418,30613,34322,39745,44543,51629
1862,"Toulon",5.907,43.13,233970,300856,341355,356920,365961,375680
1863,"Toulouse",1.41,43.592,337132,443155,489083,572788,653850,737323
1865,"Tours",0.679,47.375,150655,212154,239339,248613,260803,266615
1867,"Troyes",4.058,48.288,92534,111964,117139,115372,118968,117818
1870,"Valence",4.878,44.932,72534,96873,104431,108147,110316,112292
1871,"Valenciennes // Denain",3.488,50.36,195741,215461,209903,202120,202947,202591
1872,"Vannes",-2.759,47.657,34603,48220,56256,63890,73339,77464
1875,"Vernon",1.475,49.089,16931,23992,26667,28144,29206,30153
1877,"Vichy // Cusset",3.446,46.131,46924,54867,57457,54990,53568,52673
1878,"Vienne",4.863,45.518,26568,31732,33774,36914,37178,36996
1879,"Vierzon",2.073,47.225,31110,34545,34452,34020,31358,29131
1880,"Villefontaine",5.138,45.63,3574,6067,16520,29124,31779,33299
1882,"Villefranche-sur-Saone",4.719,45.984,26467,35868,42161,46301,49006,53896
1887,"Vitrolles // Marignane",5.214,43.463,29401,54434,81790,106806,111592,110313
1894,"Armentieres",2.871,50.684,43461,48542,50590,52481,53100,53398
1895,"Comines // Wervik // Comines-Warneton (Komen-Waasten) // Wervicq-Sud // Bousbecque",3.049,50.789,33279,35658,36902,37622,38287,40167
1898,"Lille // Roubaix // Tourcoing",3.211,50.783,1178034,1289767,1322386,1339090,1363136,1388302
1899,"Onnaing // Quievrechain // Quievrain // Crespin",3.654,50.399,32198,32781,31746,30303,29184,28922
1902,"Strasbourg",7.737,48.573,297469,349611,375779,396180,421662,435740
1903,"Longwy // Petange // Aubange // Mont-Saint-Martin // Bascharage",5.805,49.557,81414,84884,79134,74454,77512,82724
1905,"Dimos Agrinioi",21.384,38.639,34852,42720,45893,51947,54207,57960
1907,"Dimos Alexandroipoleos",25.851,40.954,26624,29817,38803,41800,52468,61354
1911,"Dimos Athinaion",23.765,38.036,1855126,2566368,3087947,3199698,3356545,3352865
1912,"Dimos Beroias",22.116,40.484,30743,33715,42090,42898,47313,48346
1913,"Dimos Boloi",22.905,39.394,71190,80813,99924,108155,116264,120398
1914,"Dimos Dramas",24.177,41.219,48471,41279,48650,49707,55502,58190
1915,"Dimos Eleisinos // Dimos Aspropirgoi",23.49,38.105,29036,37574,41222,52299,69941,72508
1917,"Dimos Giannitson",22.421,40.786,25281,22791,24747,27376,31353,33968
1918,"Dimos Ioanniton",20.839,39.642,39045,46701,53266,68932,77222,90094
1919,"Dimos Irakleioi",25.123,35.285,74786,88255,114782,131541,149847,166482
1920,"Dimos Kabalas",24.463,40.979,46842,48322,58023,60148,63227,59018
1921,"Dimos Kalamatas",22.182,37.073,47473,45255,47575,50628,57467,61525
1923,"Dimos Karditsas",21.91,39.378,30211,31722,33586,36114,37734,41383
1925,"Dimos Katerinis",22.503,40.279,33289,32550,41827,48528,56261,61700
1926,"Dimos Kerkiraion",19.857,39.633,32634,34012,39818,40945,39517,42157
1928,"Dimos Komotinis",25.457,41.172,39652,39448,44908,45916,52510,59873
1929,"Dimos Korinthion",22.912,37.897,19643,24423,28361,33324,36487,37831
1930,"Dimos Kozanis",21.758,40.308,33325,33359,41086,43381,47364,53298
1931,"Dimos Lamieon",22.451,38.906,41047,46764,49803,55324,58534,64034
1932,"Dimos Larisas",22.406,39.644,56735,73324,102167,114089,125820,145134
1934,"Dimos Mitilinis",26.537,39.09,34658,31708,33153,32178,36107,37453
1938,"Dimos Patreon",21.789,38.196,104050,120866,155305,170629,184087,194807
1939,"Dimos Pirgoi",21.43,37.685,32726,30679,32859,39042,34986,35431
1941,"Dimos Ptolemaidas",21.685,40.51,21641,24825,29031,32696,35479,37122
1942,"Dimos Rethimnis",24.452,35.311,23235,21347,24252,30630,38109,49575
1943,"Dimos Rodoi",28.214,36.42,28028,32708,40405,43495,53476,57183
1944,"Dimos Salaminas",23.471,37.938,17609,18972,22334,27396,30886,31483
1945,"Dimos Serron",23.599,41.15,42827,41937,46569,51574,56048,60481
1948,"Dimos THessalonikis",22.951,40.637,375169,550266,695892,735478,778616,772876
1949,"Dimos Trikkaion",21.762,39.555,32363,38574,44981,48880,51800,60675
1950,"Dimos Tripolis",22.364,37.516,21967,23058,26642,26438,28921,32866
1951,"Dimos Xalkideon",23.641,38.474,28432,36129,43148,51460,53543,58178
1952,"Dimos Xanion",24.003,35.459,56435,57911,66021,75338,85188,100907
1953,"Dimos Xanthis",24.932,41.15,31940,31198,38421,41712,52027,62179
1955,"Bjelovar",16.838,45.883,29781,35428,39782,42012,41874,40314
1956,"Cakovec",16.446,46.386,20606,23694,31899,35034,35932,35805
1959,"Dubrovnik",18.013,42.711,27625,35413,45739,51454,43946,42643
1961,"Grad Zagreb",16,45.81,474874,625677,720639,776443,779113,789750
1962,"Karlovac",15.65,45.48,57877,63737,69476,73331,59703,55792
1963,"Koprivnica",16.814,46.145,16485,20980,25811,29608,30962,30857
1969,"Osijek",18.72,45.528,84129,108514,123562,129646,114964,108204
1971,"Pula",13.843,44.879,36883,46881,55915,62218,58683,57487
1972,"Rijeka",14.301,45.405,113434,145121,177627,190879,176578,169055
1973,"Samobor",15.646,45.788,27071,28435,32772,34964,36177,37598
1974,"Sibenik",15.96,43.714,42272,44823,48900,53087,49204,46398
1976,"Sisak",16.382,45.419,70524,85241,92751,96474,76088,72512
1977,"Slavonski Brod",18.027,45.162,29884,39765,48908,57017,66965,61782
1978,"Split",16.453,43.539,104134,158357,213076,244246,241859,240694
1981,"Varazdin",16.341,46.298,31067,39161,45675,48759,49069,46997
1982,"Velika Gorica",16.08,45.675,25744,28326,46527,56623,63347,63517
1983,"Vinkovci",18.804,45.271,25176,31435,35832,38514,35975,35327
1985,"Vukovar",19.01,45.347,31290,43323,49407,53081,37356,32837
1986,"Zadar",15.025,44.204,35171,52591,69742,83762,76814,78987
1989,"Ajka",17.565,47.093,21154,27080,32772,33467,31820,29288
1990,"Baja",18.962,46.186,30757,35859,38539,38550,37922,36380
1995,"Bekescsaba",21.083,46.684,52447,59531,67955,67299,67962,62448
1999,"Budapest",19.081,47.493,1973844,2200340,2287587,2212309,2058316,2057701
2000,"Cegled",19.808,47.201,37900,38116,40281,37321,38048,36742
2003,"Debrecen",21.666,47.53,137915,170670,199559,212024,211043,211300
2006,"Dunaujvaros",18.919,46.96,32166,46489,60563,58358,55337,48934
2007,"Eger",20.384,47.911,42116,51741,63510,63457,60672,59472
2011,"Godollo",19.368,47.595,18078,22479,28106,28685,31082,32421
2013,"Gyongyos",19.955,47.804,28875,32218,36880,35924,33569,31566
2014,"Gyor",17.665,47.658,93482,111893,131723,136433,137580,139519
2015,"Hajduboszormeny",21.446,47.705,33403,31088,32039,31025,31984,31744
2020,"Hodmezovasarhely",20.376,46.414,53648,53731,54164,50871,49407,46274
2023,"Kaposvar",17.81,46.377,49112,62012,72318,71236,68720,66414
2025,"Kazincbarcika",20.659,48.226,15113,43265,51610,49562,46617,42455
2026,"Kecskemet",19.68,46.91,72455,85646,97432,103416,107708,111150
2029,"Kiskunfelegyhaza",19.851,46.724,33210,34118,35293,33936,32644,30338
2038,"Miskolc",20.699,48.093,148052,183905,206904,194222,184216,168853
2042,"Mosonmagyarovar",17.273,47.865,21226,24757,29330,29674,29962,31857
2044,"Nagykanizsa",16.995,46.445,39431,44698,52590,53705,52121,49236
2048,"Nyiregyhaza",21.709,47.939,67085,84260,108814,114954,118759,119679
2049,"Oroshaza",20.684,46.59,32171,33709,36078,34024,31784,29262
2051,"Ozd",20.288,48.231,39036,43949,45866,40989,38428,34743
2053,"Papa",17.473,47.323,28213,31134,33271,33794,33551,31962
2055,"Pecs",18.242,46.088,119127,152520,169224,168690,162554,156493
2057,"Salgotarjan",19.825,48.11,35566,41175,46620,44842,42549,37609
2061,"Sopron",16.602,47.686,42544,48599,54861,55273,56167,60231
2064,"Szeged",20.143,46.25,120042,147119,164979,169638,168286,168064
2065,"Szekesfehervar",18.445,47.19,58879,81227,104099,108495,106366,100965
2066,"Szekszard",18.705,46.347,19920,25708,34841,36730,36224,34427
2067,"Szentendre",19.061,47.722,10697,13353,17132,19908,29576,33836
2070,"Szigetszentmiklos // Szigethalom // Tokol",19.005,47.34,20913,31182,39900,43325,52033,70044
2071,"Szolnok",20.185,47.173,50133,64689,75654,78205,77636,73272
2072,"Szombathely",16.616,47.232,57916,68915,85073,87361,84557,81844
2076,"Tatabanya",18.424,47.554,53348,67138,75800,73957,72484,68074
2079,"Vac",19.138,47.796,25231,31127,34780,34178,34944,33908
2081,"Veresegyhaz // Erdokertes // Orbottyan",19.287,47.669,9917,11720,13484,15134,21056,29634
2082,"Veszprem",17.916,47.128,29256,41846,57880,63688,62859,61800
2083,"Zalaegerszeg",16.837,46.84,31134,41897,56701,62118,61671,59649
2084,"Gyula",21.278,46.637,28933,30925,34513,34101,33051,31202
2085,"Esztergom // Sturovo",18.761,47.769,28903,35822,41575,41895,41180,39911
2094,"CORK",-8.498,51.878,114346,137350,156465,163273,170007,175928
2095,"Dublin",-6.267,53.31,679292,812014,939017,955667,1020608,1121312
2095,"Sword",-6.237,53.473,2974,5394,11944,19464,29366,40090
2096,"GALWAY",-9.049,53.283,23518,29293,40712,50412,63441,74675
2101,"LIMERICK",-8.645,52.665,46193,56841,73849,71036,77924,80351
2105,"NAVAN",-6.668,53.654,6594,8171,12967,13937,20308,29520
2106,"NEWBRIDGE",-6.859,53.15,12988,15366,20852,21598,26769,33526
2111,"WATERFORD",-7.106,52.254,25595,29260,34267,36964,41791,44923
2112,"Abano Terme // Montegrotto Terme",11.805,45.326,22003,26297,30713,34003,36505,39154
2113,"Abbiategrasso",8.895,45.382,21262,26395,26954,27425,27717,30730
2114,"Acerra",14.388,40.966,26815,31012,36227,41608,45386,55549
2119,"Adrano // Biancavilla",14.877,37.684,41549,40760,42561,44350,55711,59072
2122,"Agrigento // Porto Empedocle",13.553,37.321,69450,69411,72021,76622,75169,79282
2125,"Alba",8.028,44.677,22866,29890,33658,32607,34517,36074
2126,"Albano Laziale",12.633,41.71,18625,23170,26866,30134,33416,38044
2130,"Alcamo",12.974,37.964,42541,41050,41613,41928,43731,45202
2131,"Alessandria",8.644,44.909,90766,100139,99199,90176,85752,89098
2132,"Alghero",8.299,40.6,26289,31687,36115,38792,38451,40464
2133,"Altamura",16.55,40.86,43682,45538,50945,57407,63646,69100
2134,"Ancona",13.492,43.573,99032,108200,106034,101045,100518,100498
2135,"Andria",16.236,41.157,70538,76700,84177,89798,95208,99705
2137,"Anzio // Nettuno",12.66,41.487,33392,46176,55441,65945,72516,93260
2138,"Aosta",7.346,45.744,34779,41485,45597,48444,49245,51777
2139,"Aprilia",12.656,41.579,15372,27304,37198,46515,55276,66062
2140,"Ardea",12.553,41.612,4011,6491,10438,16946,25834,42516
2142,"Arezzo",11.904,43.445,73538,85540,90931,90892,91530,97622
2145,"Ascoli Piceno",13.578,42.853,52575,57775,59126,59469,58659,58432
2147,"Asti",8.194,44.913,58751,73097,75767,72207,71326,73693
2148,"Augusta",15.149,37.263,26864,33418,37895,33821,33791,35982
2150,"Avellino",14.81,40.911,53216,62517,69774,72795,72493,74634
2151,"Avezzano",13.446,42.037,29638,31528,33385,36523,38211,40553
2153,"Avola",15.119,36.927,27027,28785,30193,30939,31265,31325
2156,"Barcellona Pozzo di Gotto",15.215,38.133,35650,38097,42396,45417,49781,51143
2157,"Bari",16.723,41.079,364063,421514,460474,448270,428177,427538
2158,"Barletta",16.216,41.289,66628,74097,81691,87830,91786,94072
2159,"Baronissi // Fisciano",14.793,40.761,16608,16368,19578,23798,27216,30227
2162,"Bassano del Grappa",11.738,45.75,55172,66056,76420,82132,89382,97595
2164,"Battipaglia",14.955,40.594,25128,32094,39446,45795,50023,50456
2165,"Belluno",12.219,46.141,31011,34037,36236,35457,35076,35549
2166,"Benevento",14.783,41.149,54899,58422,62004,62279,61830,61512
2167,"Bergamo",9.682,45.709,382519,461525,509367,525755,470979,517801
2170,"Biella // Cossato",8.096,45.566,85451,96316,101063,95912,96588,94583
2172,"Bisceglie",16.485,41.205,41386,45070,46638,47584,51380,54444
2173,"Bologna",11.33,44.512,483394,563474,553049,505366,476516,482270
2174,"Bolzano",11.349,46.486,87591,104273,105227,98703,95239,101968
2177,"Borgomanero",8.458,45.707,19527,23461,28568,28173,30067,32242
2180,"Brescia",10.226,45.592,261787,318608,338222,335665,338281,355444
2182,"Brindisi",17.899,40.606,69516,80506,88652,94416,89532,88833
2186,"Bussolengo // Pescantina",10.853,45.477,14380,17625,21394,23329,28874,35262
2187,"Cagliari // Quartu Sant'Elena",9.19,39.238,200558,248270,278595,289403,296224,290727
2190,"Caltagirone",14.512,37.191,42981,37594,36747,37823,37417,38065
2191,"Caltanissetta",14.009,37.47,63159,60052,60840,61580,61454,61690
2193,"Campobasso",14.666,41.565,32290,39603,45980,48882,50626,48900
2194,"Canicatti",13.838,37.372,30504,29087,31691,32271,31760,34609
2195,"Canosa di Puglia",16.018,41.19,34141,30890,30871,31180,31426,30500
2200,"Carbonia",8.524,39.202,35130,30835,31631,32374,30601,29000
2201,"Carini // Cinisi",13.14,38.135,32822,31035,32709,39643,46113,58554
2204,"Carpi",10.893,44.802,44280,53833,59697,60265,61379,66802
2206,"Casale Monferrato",8.462,45.126,39408,42070,40732,37974,35439,34845
2209,"Caselle Torinese // San Maurizio Canavese",7.655,45.196,15988,22434,22926,24242,27203,32321
2210,"Caserta // Marcianise // Santa Maria Capua Vetere",14.273,41.075,173461,194934,223803,242542,263270,275610
2212,"Cassino",13.836,41.479,20506,23933,30242,32049,32713,33588
2218,"Castelfranco Emilia",11.073,44.598,19272,19704,20701,21282,24771,31094
2219,"Castelfranco Veneto",11.935,45.667,20551,25522,28001,29072,31292,32783
2220,"Castellammare di Stabia // Torre Annunziata // Cava de' Tirreni // Scafati // Nocera Inferiore // Pagani // Gragnano // Angri",14.555,40.763,471931,505437,555527,590447,602905,617590
2223,"Castelvetrano",12.817,37.655,31989,30722,31216,30888,30545,31721
2226,"Catania",15.054,37.533,460639,521769,571296,578880,596206,602936
2227,"Catanzaro",16.603,38.89,72264,84149,98290,95707,95261,89805
2233,"Cento",11.308,44.776,24307,26420,28541,28549,29235,34271
2234,"Cerignola",15.877,41.279,49655,48145,50795,54933,57196,56708
2235,"Cervia // Cesenatico",12.338,44.225,34302,41004,44334,45370,47430,53758
2237,"Cesena",12.235,44.13,78774,85559,88883,88303,90727,95591
2241,"Chiavari",9.355,44.328,36811,46359,50655,49379,49007,49187
2243,"Chieri",7.828,45.004,18654,28888,30382,30758,32696,35713
2244,"Chieti",14.163,42.359,46961,50553,54055,55236,52707,51561
2245,"Chioggia",12.242,45.176,46421,49080,52546,52586,51842,49890
2249,"Cisterna di Latina",12.838,41.573,16111,22082,27630,31103,32486,35313
2250,"Citta di Castello",12.248,43.444,37302,35169,37140,37172,37830,39892
2252,"Civitanova Marche",13.685,43.313,24841,31667,35303,36553,38163,40066
2253,"Civitavecchia",11.812,42.116,37431,43351,48592,50702,50097,51136
2258,"Comiso",14.594,36.964,25062,25683,27116,27955,28990,29176
2259,"Conegliano",12.325,45.897,32295,42363,47971,48409,49892,51212
2262,"Corato",16.368,41.097,39278,38444,40766,42418,44772,47825
2263,"Corigliano Calabro",16.49,39.628,23818,29907,34182,35317,38004,38481
2267,"Cosenza // Rende",16.233,39.304,93785,117391,138727,130846,122267,117763
2269,"Crema",9.683,45.366,29065,31666,33696,32526,32935,33083
2270,"Cremona",10.03,45.141,71535,79388,79021,72821,71000,69688
2271,"Crotone",17.088,39.093,42318,49833,57082,58349,59880,58967
2272,"Cuneo",7.533,44.391,52899,62604,66691,67748,66505,69954
2278,"Eboli",15.006,40.562,25934,25697,31129,34354,35741,38030
2279,"Empoli",10.96,43.736,58193,68169,72813,72108,74781,81057
2281,"Fabriano",12.907,43.332,27311,27166,28472,28584,29901,30942
2282,"Faenza",11.91,44.297,51555,55217,55996,55086,53749,57420
2283,"Falconara Marittima // Ancona",13.343,43.631,21987,29099,35083,37555,37525,36868
2284,"Fano",12.996,43.812,40277,46958,51424,53413,57200,62469
2285,"Fasano",17.405,40.825,29354,33141,35525,38783,38699,39419
2286,"Favara",13.673,37.318,27691,27851,29781,31769,31164,32823
2289,"Fermo",13.725,43.161,30697,34273,35603,35713,35519,36897
2290,"Ferrara",11.646,44.83,156086,158614,156340,146142,141310,143663
2294,"Firenze // Prato",11.145,43.836,560979,655397,685954,764921,755219,780016
2295,"Fiumicino",12.229,41.888,304049,386337,401504,393828,59571,66122
2297,"Foggia",15.584,41.456,116318,138858,154284,155400,155218,147651
2298,"Foligno",12.791,42.977,47718,49635,52079,52879,51272,55649
2300,"Fondi",13.41,41.336,21647,23039,27402,30759,31024,36664
2302,"Forli",12.05,44.227,90092,102789,109205,108559,108345,115788
2303,"Formia // Gaeta",13.603,41.271,40558,45369,52807,56680,56179,57015
2304,"Formigine",10.846,44.58,13056,16602,21568,26536,29812,33375
2306,"Francavilla Fontana",17.564,40.53,30236,31758,32885,33982,36092,36902
2307,"Frosinone",13.331,41.635,30489,38054,43820,45371,48374,46800
2308,"Fucecchio // Santa Croce sull'Arno",10.772,43.759,23768,29597,32607,32683,33559,36587
2318,"Gela",14.294,37.094,53686,65636,73753,72341,72725,75441
2320,"Genova",8.896,44.463,787551,823404,779883,699001,643967,618048
2321,"Genzano di Roma // Ariccia",12.683,41.691,19867,24987,30696,36016,39743,41929
2323,"Giarre // Riposto",15.173,37.739,41361,43940,48002,50357,51354,55702
2329,"Giulianova // Alba Adriatica",13.924,42.776,24416,30117,35019,37664,39476,44738
2332,"Gravina in Puglia",16.364,40.841,31888,32199,35797,38905,41905,43500
2333,"Grosseto",11.09,42.767,50659,61250,68494,70660,71226,78035
2334,"Grottaferrata // Frascati // Marino",12.674,41.808,24469,29674,34196,37128,37003,39676
2335,"Grottaglie",17.414,40.537,23092,24264,27615,30592,31808,32456
2337,"Guidonia Montecelio",12.703,41.981,21739,32215,48471,55927,66555,80276
2341,"Imola",11.716,44.388,50387,56136,59767,61788,64152,67612
2342,"Imperia",8.004,43.899,33343,38782,40111,39355,39444,42094
2346,"Ivrea",7.896,45.452,28200,36300,36457,33532,32773,32863
2347,"Jesi",13.262,43.517,34399,39067,40170,39531,39244,40219
2348,"L'Aquila",13.425,42.396,55438,59395,62919,66047,68324,67082
2349,"La Spezia",9.823,44.104,124113,126529,118153,104638,96113,96292
2351,"Ladispoli",12.099,41.954,4548,7755,12625,19379,29017,36669
2353,"Lamezia Terme",16.278,38.938,52922,55093,62408,68588,70387,70349
2354,"Lanciano",14.4,42.208,27514,27940,31758,33661,35633,35912
2356,"Latina",12.878,41.466,47601,75315,92325,105096,107757,117089
2359,"Lecce",18.175,40.405,81466,90407,100389,110492,97122,104061
2360,"Lecco",9.405,45.833,58665,90386,97637,94506,95186,98240
2361,"Legnago // Cerea",11.243,45.165,45499,49569,52192,51118,49575,51175
2362,"Lentini // Carlentini",14.951,37.298,46208,44744,46078,45779,41938,42377
2364,"Licata",13.919,37.154,38489,41019,41544,41358,38235,38114
2365,"Livorno",10.359,43.524,159592,173141,175181,167708,157113,156992
2366,"Loano // Pietra Ligure // Borghetto Santo Spirito",8.252,44.155,13751,23565,29001,27513,28549,30259
2368,"Lodi",9.504,45.315,36980,42989,42547,41566,40859,43132
2371,"Lucca // Capannori",10.526,43.85,133207,137954,141634,138134,131924,139958
2372,"Lucera",15.352,41.498,28230,31080,32678,35367,35197,34396
2373,"Lugo",11.907,44.477,33626,34507,34350,32349,31649,32026
2376,"Macerata",13.452,43.304,37199,42203,42870,42236,40978,41930
2377,"Maddaloni",14.391,41.026,30069,31081,33639,36995,37525,39262
2383,"Manduria",17.64,40.378,26104,27177,30257,31317,31718,30984
2385,"Manfredonia",15.818,41.533,36552,44725,52284,57739,57742,56367
2386,"Mantova",10.807,45.149,60655,63857,59798,52424,48104,46736
2390,"Marsala",12.54,37.815,74391,73079,78116,79502,77927,80027
2392,"Martina Franca",17.304,40.687,37231,38987,42660,45125,48471,48989
2393,"Massa // Carrara // Viareggio",10.149,44.031,290184,318613,333415,334430,337392,344754
2394,"Massafra",17.117,40.598,20304,23720,27978,30984,30947,32266
2395,"Matera",16.579,40.67,38045,43845,49989,54369,57533,59638
2397,"Mazara del Vallo",12.646,37.702,37385,39199,44034,48132,50221,50024
2400,"Merano",11.14,46.664,33713,36510,37396,37493,39809,44387
2401,"Merate",9.42,45.684,19162,22615,29017,30823,37772,41924
2402,"Mercato San Severino // Montoro Inferiore",14.747,40.797,24292,24868,26291,27591,29689,32394
2405,"Messina",15.509,38.188,256156,252108,260301,234933,252771,246201
2406,"Milano",9.037,45.632,3314409,4170259,4391719,4278400,4241520,4398338
2407,"Milazzo",15.267,38.196,32489,35611,40182,43303,45043,45566
2409,"Mira",12.158,45.431,27216,31562,35267,36089,35417,38295
2412,"Modena",10.916,44.644,135152,165926,177167,175039,175445,178865
2413,"Modica",14.823,36.854,44230,44324,47532,50581,52491,53856
2415,"Molfetta",16.57,41.183,61161,63118,65116,66410,62855,60594
2418,"Monfalcone",13.525,45.789,29496,32905,35127,32982,33015,34145
2419,"Monopoli",17.278,40.898,36750,40089,43718,46395,46700,48386
2421,"Montebelluna",12.034,45.774,22560,26705,29948,31303,34301,38369
2422,"Montecatini-Terme // Monsummano Terme // Pieve a Nievole",10.786,43.88,38604,40548,42601,58454,63908,66241
2424,"Monterotondo",12.623,42.068,15538,21487,26076,29992,34032,39080
2430,"Napoli",14.261,40.912,1860830,2098062,2291332,2313771,2420574,2435953
2431,"Nardo",17.957,40.232,26888,26571,28396,31343,30605,31596
2437,"Nola // Cicciano // Saviano",14.525,40.943,63061,65364,77673,84340,85908,88288
2439,"Novara",8.616,45.44,85342,97917,100285,99520,100792,101871
2441,"Nuoro",9.3,40.339,22274,29953,34954,36942,36710,36674
2444,"Olbia",9.48,40.923,17391,23697,30209,40108,45003,52647
2445,"Olgiate Comasco",8.961,45.826,10598,13933,23080,36707,44346,49086
2448,"Oristano",8.621,39.88,22801,26972,30569,32909,35370,35935
2450,"Osimo",13.462,43.484,23198,23883,25976,27833,29312,33615
2452,"Padova",11.925,45.416,271429,325297,348577,343715,348119,367475
2455,"Palermo",13.366,38.119,638886,695724,764238,780844,790407,773405
2460,"Parma",10.328,44.794,144710,171941,177861,170428,163954,174902
2461,"Partinico",13.083,38.028,32382,31054,32976,32693,36853,38328
2462,"Paterno",14.856,37.533,33319,33930,35219,36377,44903,47701
2465,"Pavia",9.165,45.198,72486,83888,83333,75980,71540,68502
2467,"Perugia",12.395,43.137,110247,127189,139964,143214,148658,161379
2468,"Pesaro",12.864,43.887,64019,82090,88922,87875,90813,93990
2469,"Pescara",14.185,42.445,117629,162268,191812,199322,204857,221231
2471,"Piacenza",9.718,45.041,84358,101641,105121,99290,95846,99939
2473,"Pinerolo",7.348,44.891,28009,35857,35282,34314,33553,34747
2474,"Piombino",10.604,42.976,35588,39295,39412,36983,34146,34381
2477,"Pisa // Cascina",10.422,43.673,132807,147924,153569,150648,144992,149377
2478,"Pistoia",10.916,43.977,4940,6896,8232,72199,84499,88719
2481,"Pomezia",12.505,41.662,7599,19197,30449,38347,43541,55300
2484,"Pordenone",12.678,45.975,49320,69098,78262,77936,79568,83693
2489,"Portogruaro // Concordia Sagittaria",12.844,45.743,29057,31708,34459,35162,35074,35724
2490,"Potenza",15.807,40.659,42387,55006,63208,65115,68744,66951
2492,"Pozzuoli",14.102,40.85,55093,63588,73453,78696,78781,80232
2496,"Quarto // Pozzuoli",14.129,40.884,7035,8731,17952,29436,36023,39007
2499,"Ragusa",14.664,36.907,57644,62048,64947,67992,68899,69729
2501,"Rapallo",9.22,44.357,34287,40841,43590,40674,41846,41490
2503,"Ravenna",12.193,44.413,112489,128425,135097,134195,134586,152173
2505,"Reggio di Calabria",15.718,38.113,150392,162442,170312,174580,179910,180781
2506,"Reggio nell'Emilia",10.635,44.697,114644,126708,129279,130967,140981,160425
2508,"Rieti",12.851,42.406,34362,37926,41705,42052,43644,45997
2509,"Rimini",12.585,44.012,136548,175507,192872,196561,201238,216457
2510,"Riva del Garda // Arco",10.875,45.9,22416,24249,26287,27688,31238,35119
2514,"Roma",12.465,41.882,1849005,2361978,2465560,2426020,2599521,2686600
2518,"Rosignano Marittimo",10.453,43.421,26826,28528,29761,29890,30525,31660
2520,"Rossano",16.641,39.579,22970,24965,30742,33277,35638,36307
2521,"Rovato // Coccaglio // Cologne",9.98,45.556,19767,22039,23874,25141,27692,33090
2522,"Rovereto",11.01,45.885,34504,42339,46661,49252,51117,57267
2523,"Rovigo",11.796,45.077,48155,51919,54378,54605,52939,52776
2528,"Salerno",14.82,40.667,146180,183437,192714,189125,180358,176597
2531,"San Benedetto del Tronto",13.867,42.95,37188,49850,54978,54973,58967,62320
2534,"San Dona di Piave",12.571,45.618,30983,36719,40611,42414,45407,51631
2535,"San Felice a Cancello // Santa Maria a Vico",14.478,41.013,29252,27014,29541,33134,35300,36490
2548,"San Remo",7.767,43.838,53380,60139,59789,55076,50924,53856
2550,"San Severo",15.424,41.656,48185,49490,53660,54844,55785,54979
2561,"Sarno",14.623,40.818,30457,30921,30864,31862,31130,31032
2562,"Sassari",8.364,40.745,80001,95149,106789,110946,119938,123544
2563,"Sassuolo",10.777,44.524,39130,56509,69308,77272,83195,87905
2567,"Savona",8.414,44.318,99648,112306,108953,99411,92024,92142
2569,"Schio // Thiene",11.398,45.745,72191,83496,89367,91624,98236,105143
2570,"Sciacca",13.103,37.544,31198,31407,35628,37870,40059,40848
2573,"Senigallia",13.188,43.693,40738,44337,48756,50928,52513,55821
2579,"Siena",11.334,43.311,60409,64495,61536,56676,52910,52822
2580,"Siracusa",15.214,37.039,81267,98984,115225,124180,123753,118784
2583,"Sora // Isola del Liri",13.569,41.719,38232,39376,41317,41942,41795,41746
2584,"Sorrento // Piano di Sorrento // Meta",14.402,40.622,32092,37718,42358,43782,45352,46468
2586,"Spoleto",12.708,42.738,38151,36039,36973,37432,37855,38387
2593,"Taranto",17.278,40.468,150752,175505,191441,186142,205965,207924
2597,"Teramo",13.711,42.658,40994,46688,50136,51009,51026,54034
2600,"Termoli",14.963,41.982,10872,15063,21871,27673,30082,32590
2601,"Terni",12.661,42.58,93406,104982,110196,107560,105199,108865
2602,"Terracina",13.191,41.316,29263,32900,36281,36790,36647,43594
2604,"Tivoli // Guidonia Montecelio",12.785,41.957,33889,41576,50693,52810,49620,52626
2605,"Torino",7.653,45.057,1190173,1502113,1521841,1400017,1305676,1311881
2607,"Trani",16.39,41.239,37879,40434,44116,49795,52905,55629
2608,"Trapani // Erice",12.625,37.935,96218,93347,96369,98184,97733,97284
2611,"Trento",11.11,46.068,78195,94618,103615,106773,112077,122006
2614,"Treviso",12.261,45.677,98473,117811,122816,122580,124700,130479
2615,"Trezzo sull'Adda // Brembate // Capriate San Gervasio",9.519,45.608,19215,21541,22778,24170,27933,30572
2616,"Trieste",13.812,45.653,276433,276099,258642,237447,218550,208721
2619,"Udine",13.217,46.061,100870,117960,124794,124396,123427,129104
2620,"Valdagno // Cornedo Vicentino",11.309,45.631,35783,37440,38741,38376,40495,42265
2624,"Vasto",14.695,42.121,19726,24449,29667,32617,35153,38475
2626,"Velletri",12.768,41.663,34688,37288,40495,42852,47797,51970
2627,"Mestre",12.237,45.5,316834,344972,343330,320241,345611,342715
2629,"Verbania",8.562,45.942,29096,33376,32177,30406,32282,32706
2630,"Vercelli",8.411,45.32,48891,54194,51081,48079,45344,46216
2631,"Verona",11.005,45.442,228607,276096,280691,273360,274361,276488
2634,"Vibo Valentia",16.094,38.683,24731,30159,30995,34015,33983,33403
2635,"Vicenza",11.517,45.536,125654,154942,166398,167437,173237,184603
2637,"Vigevano",8.868,45.308,56163,66653,65165,60630,57671,59899
2639,"Villafranca di Verona",10.85,45.36,18672,21925,24083,26492,29131,32472
2640,"Castelli Calepio // Grumello del Monte // (Villongo // Sarnico // Paratico 2001)",9.919,45.653,9757,11039,12827,14157,32923,38187
2642,"Viterbo",12.063,42.438,49506,53795,57033,58102,59216,62899
2643,"Vittoria",14.496,36.957,44728,45816,50523,54607,55286,60547
2645,"Voghera",9.014,45.008,34309,39694,41288,39429,38269,38175
2647,"Gorizia // Nova Gorica",13.626,45.948,56170,58265,58987,56993,55222,54889
2649,"Alytaus (m.s.)",24.036,54.401,1801,2883,49151,62714,71254,60225
2650,"Kauno (m.s.)",23.93,54.919,223684,297598,356948,396626,389832,328704
2651,"Klaipedos (m.s.)",21.153,55.707,41123,59998,75994,96664,189603,163053
2652,"Marijampoles m.",23.35,54.553,26320,29644,41510,50838,48729,42325
2653,"Mazeikiu sen.",22.333,56.31,27310,30363,36927,43267,42690,37065
2655,"Panevezio (m.s.)",24.347,55.73,46170,76521,107052,125698,119896,100142
2656,"Siauliu (m.s.)",23.325,55.905,50717,74598,96813,116936,133425,109876
2659,"Vilniaus (m.s.)",25.272,54.693,225895,333820,420798,499949,552467,536075
2661,"Esch/Alzette // Differdange",5.937,49.517,58763,62056,59652,58378,63758,75697
2662,"Luxembourg",6.147,49.633,78544,94319,109806,111662,123219,142275
2666,"Daugavpils",26.543,55.891,70618,102163,117483,123166,113591,93604
2669,"Jelgava",23.716,56.651,38738,55744,68609,72160,63356,59570
2670,"Jurmala",23.693,56.959,37793,48520,54820,59716,55366,50909
2673,"Liepaja",21.037,56.542,74648,95379,109176,109649,88504,76905
2677,"Rezekne",27.34,56.51,22072,30076,36870,41891,38711,32421
2678,"Riga",24.122,56.978,607077,739023,843935,883014,756495,660092
2685,"Ventspils",21.602,57.406,29223,41640,48502,49401,43548,38822
2686,"Menton // Beausoleil",7.453,43.767,37784,47748,49044,61261,61204,63325
2687,"Valletta",14.465,35.899,180967,180268,194790,206809,218143,222147
2688,"'s-Gravenhage",4.348,52.079,810698,791850,698687,681846,693316,729961
2689,"'s-Gravenzande",4.217,51.997,58935,71438,83353,90745,95451,99717
2690,"'s-Hertogenbosch",5.31,51.699,105196,123536,133297,141372,154368,165007
2692,"Aalsmeer",4.755,52.258,15264,19374,21378,22232,22544,29187
2694,"Alkmaar // Heerhugowaard",4.8,52.668,65755,86925,120737,146364,160787,171994
2695,"Almelo",6.602,52.346,68177,79104,87496,87860,93113,96049
2696,"Almere",5.244,52.365,39,724,6706,71086,142765,188160
2697,"Amersfoort",5.4,52.149,81530,94281,108582,126915,154890,173674
2698,"Amsterdam",4.873,52.398,1048367,1067097,975352,963031,1020905,1071049
2699,"Apeldoorn",5.922,52.19,103016,123628,138164,147586,153261,155726
2701,"Arnhem",5.893,52.001,126399,132842,127972,130349,138154,147018
2702,"Assen",6.552,53.001,29270,39358,45534,50160,58445,66857
2703,"Barneveld",5.642,52.168,24357,30069,36475,42361,47744,52490
2704,"Bemmel",5.942,51.902,23994,28092,34956,38234,40727,45445
2705,"Bergen",4.67,52.663,21780,28217,31846,32076,31736,30985
2706,"Bergen op Zoom",4.288,51.504,44149,50076,56832,60149,65104,65845
2709,"Boxtel",5.327,51.578,2726,3244,3985,4339,29250,30276
2710,"Breda",4.761,51.585,121085,139940,141717,148721,160615,173299
2713,"Bussum",5.163,52.297,53947,59237,52173,47951,47944,49264
2714,"Castricum",4.683,52.557,18023,27566,32116,32407,34329,34652
2715,"Cuijk",5.863,51.726,14059,21084,27456,29243,31737,32482
2717,"De Bilt // Soest",5.174,52.142,31782,37487,41255,41424,42221,42017
2719,"De Ronde Venen",4.917,52.226,20230,27468,33853,39024,42684,43164
2721,"Den Helder",4.755,52.924,48567,60610,61761,61647,59441,57403
2722,"Deurne",5.827,51.436,18947,24003,27783,29590,32028,31526
2723,"Deventer",6.236,52.268,66694,78453,80009,82446,89149,98523
2724,"Didam",6.214,51.917,24920,30146,33098,33784,34873,35179
2726,"Doetinchem",6.287,51.961,31069,37046,43686,48319,53848,56108
2729,"Dordrecht",4.709,51.807,170835,216814,246973,258478,275171,282196
2730,"Driebergen-Rijsenburg",5.388,52.035,34170,41181,46176,47466,48401,48801
2731,"Dronten",5.704,52.5,538,9975,19658,24733,35244,39787
2733,"Echt",5.908,51.085,23943,26621,30286,30841,32099,32282
2735,"Ede",5.728,52.076,55655,71783,82636,93161,101700,107756
2736,"Eindhoven",5.46,51.453,232562,286587,310314,317646,338398,356198
2737,"Emmen",6.962,52.75,74049,88775,99568,102702,105972,109491
2738,"Enschede",6.878,52.221,123799,139245,143042,146010,149505,157052
2739,"Epe",5.955,52.326,22713,27515,33071,34004,33081,32881
2740,"Etten-Leur",4.645,51.578,13954,19596,28369,32129,37023,41524
2745,"Gendringen",6.409,51.908,29590,35628,39214,40165,40490,39897
2748,"Goes",3.842,51.516,22683,25822,30193,32034,35768,36605
2750,"Gorinchem",4.977,51.838,21540,27175,29734,28700,33602,34663
2751,"Gouda // Alphen aan den Rijn",4.714,52.077,108186,132371,173802,196425,216066,216653
2754,"Groningen",6.589,53.197,166490,185826,180649,186202,191722,205814
2756,"Haarlem // Velsen",4.638,52.441,335813,367189,346917,334925,345776,355336
2757,"Haarlemmermeer",4.684,52.297,43428,58966,77657,95782,111155,142788
2758,"Hardenberg",6.574,52.586,38664,43516,50466,52628,56797,59014
2759,"Harderwijk // Ermelo",5.658,52.307,31581,44088,54516,61216,66505,70274
2763,"Heerenveen",6.021,52.976,25753,31321,36598,37930,40437,43418
2765,"Helden",5.995,51.336,23147,28949,35951,38900,42096,43058
2766,"Hellendoorn",6.451,52.386,24283,29410,32940,34526,35674,35791
2767,"Hellevoetsluis",4.127,51.84,6833,9652,20095,34728,38358,39756
2768,"Helmond",5.657,51.476,50618,58200,58947,68654,80098,88291
2769,"Hengelo",6.778,52.255,61479,70607,75219,76000,79724,80772
2771,"Vlijmen",5.16,51.697,20701,28582,34827,39654,42779,42995
2773,"Hilversum",5.168,52.223,101189,99792,92964,84608,82177,84573
2774,"Hoogeveen",6.514,52.723,29912,42094,48675,51031,52790,54805
2775,"Hoogezand-Sappemeer",6.747,53.147,23786,30189,35884,34463,33053,34754
2776,"Hoorn",5.07,52.656,20550,23485,39606,57384,64604,70252
2777,"Horst aan de Maas",6.042,51.445,24774,30624,35709,36880,39565,41465
2778,"Houten",5.182,52.004,5874,7232,8671,25505,33313,47622
2779,"Huizen // Baarn",5.261,52.251,60182,68930,83975,96379,96373,95366
2781,"Kampen",5.923,52.558,35014,39098,42008,45705,47508,50051
2784,"Leeuwarden",5.804,53.191,82766,88725,84590,85570,88887,94073
2785,"Leiden",4.476,52.154,174990,205955,221218,238854,253806,259554
2786,"Lelystad",5.473,52.477,227,4208,38971,57638,63098,74628
2787,"Lichtenvoorde",6.575,52.01,19991,24090,27204,28174,29531,30026
2789,"Lochem",6.347,52.18,25712,29983,31713,31599,32397,33395
2792,"Meppel",6.194,52.716,20185,21738,25604,27053,29652,32378
2794,"Zevenbergen",4.536,51.663,25012,26410,34458,35256,36312,36536
2798,"Nieuwerkerk aan den IJssel",4.608,51.999,13785,21584,27447,35108,38778,40410
2799,"Nijkerk",5.484,52.212,17575,22626,30687,33874,36315,39538
2800,"Nijmegen",5.763,51.827,146196,170310,177899,182111,190312,203111
2801,"Roden",6.44,53.096,15878,21112,27689,30365,30740,30808
2802,"Noordoostpolder",5.773,52.709,27953,31772,37221,37889,42951,46090
2805,"Nootdorp",4.422,52.018,12562,18551,21318,22575,30613,48013
2810,"Oldenzaal",6.911,52.308,20014,22927,28484,30161,31067,31974
2811,"Oosterhout",4.864,51.638,23773,31852,43500,48455,52291,54136
2812,"Oss",5.531,51.784,46446,58755,68257,74366,80942,84043
2813,"Oud-Beijerland // Albrandswaard",4.426,51.833,14195,20106,27168,34439,38886,47746
2814,"Elst",5.778,51.924,23642,28330,33476,35595,39210,45577
2817,"Purmerend",4.971,52.502,11592,25018,36701,58594,70284,79038
2819,"Raalte",6.279,52.388,19870,25252,30826,34516,36151,36796
2820,"Renkum",5.785,51.99,28886,33619,34166,33578,32155,31656
2821,"Rheden",6.051,52.034,37977,48741,48637,45691,44313,43724
2822,"Rijssen",6.434,52.291,19901,24629,30238,32895,35129,37080
2823,"Roermond",6.012,51.201,43597,47372,49572,50698,53542,55212
2824,"Roosendaal",4.425,51.513,44355,52755,62697,68564,75157,77566
2825,"Rotterdam",4.374,51.92,985407,1053681,1010164,1035887,1085533,1109253
2827,"Sassenheim",4.512,52.214,18338,22180,24245,29344,33605,35759
2831,"Sittard-Geleen // Stein",5.786,50.951,29494,37693,42431,43065,43470,42252
2833,"Smallingerland",6.039,53.113,25813,38712,48569,50234,52437,55271
2834,"Sneek",5.527,53.01,64838,69797,75456,75384,79416,82250
2835,"Soest",5.296,52.156,27960,35724,40592,41480,44251,45680
2836,"Stadskanaal",7.01,53.002,26876,32856,34023,32979,33097,33416
2838,"Stede Broec // Enkhuizen",5.247,52.708,23767,25622,33227,34401,38125,39427
2839,"Steenwijk",6.03,52.756,34049,35665,37779,38107,40733,43208
2840,"Terneuzen",3.846,51.288,42618,51389,56673,55903,55359,54878
2841,"Tiel",5.406,51.885,19625,23698,28975,32075,38387,41192
2842,"Tilburg",5.069,51.58,145105,164093,168300,174120,193168,204853
2843,"Tytsjerksteradiel",5.963,53.2,20065,23385,29625,30220,31037,32237
2844,"Uden",5.652,51.656,15734,23305,32714,35490,39607,40536
2847,"Utrecht",5.056,52.095,311508,361352,374059,404144,428199,484631
2848,"Valkenswaard",5.449,51.324,18757,23245,27450,30001,31089,30725
2850,"Veenendaal",5.556,52.024,23419,29784,39379,48533,59875,62053
2851,"Veghel",5.574,51.6,17670,23109,29858,32231,36143,37303
2852,"Venlo",6.159,51.391,80309,91919,93679,97151,98923,100301
2853,"Venray",5.963,51.515,23038,28544,35946,37461,41252,42718
2854,"Vlissingen // Middelburg",3.639,51.486,66857,73479,87655,87987,89262,92642
2856,"Vriezenveen",6.598,52.448,21836,25380,29558,31820,33276,33580
2857,"Waalwijk // Loon op Zand",5.027,51.67,42488,50562,60107,64981,68150,68767
2858,"Wageningen",5.664,51.974,22714,26572,30447,32492,33440,37359
2860,"Weert",5.692,51.234,30949,39359,43234,45303,47959,48456
2864,"Winschoten",7.056,53.195,38635,38870,42028,39951,39848,39486
2865,"Winterswijk",6.726,51.97,24532,26230,27670,27919,28561,29051
2867,"Woerden",4.899,52.107,22047,28430,36505,42441,46084,49334
2869,"Zeist",5.255,52.102,51479,55584,61532,59469,60020,60286
2870,"Zevenaar",6.085,51.96,13760,22132,31957,31402,31203,31907
2871,"Zoetermeer",4.49,52.061,8444,17129,63819,96266,109941,121532
2872,"Zutphen",6.234,52.136,30642,33737,38759,39937,44152,46870
2873,"Zwolle",6.118,52.519,65800,76427,82519,94491,106173,119030
2875,"Maastricht",5.672,50.876,128165,139804,129558,139113,145845,144025
2877,"Heerlen // Kerkrade // Landgraaf",6.02,50.885,255393,268042,267787,273325,276520,262529
2878,"Sittard-Geleen",5.828,51.005,76011,88408,92782,93108,98412,95243
2881,"Andrychow",19.364,49.822,24456,30942,36521,41138,40635,43775
2882,"Augustow",23.01,53.848,14735,20191,24377,27900,28822,30752
2884,"Belchatow",19.366,51.36,8667,10620,27072,53732,54063,60316
2885,"Biala Podlaska",23.142,52.03,21233,27570,38307,51678,56110,57965
2887,"Bialystok",23.159,53.132,122438,170144,222478,267581,282987,293736
2888,"Bielawa",16.603,50.676,28110,31046,32536,33101,28448,31609
2890,"Bielsko-Biala",19.014,49.843,150907,174611,193479,221673,218759,218783
2892,"Bochnia",20.431,49.97,15957,18399,24919,28290,27863,30126
2895,"Boleslawiec",15.562,51.26,24277,32271,40036,42479,37854,40144
2899,"Brzeg",17.464,50.858,23720,29098,32234,34214,35851,37399
2901,"Brzesko",20.613,49.976,21523,24609,29150,32976,34942,36265
2906,"Busko-Zdroj",20.75,50.478,25729,27755,30727,33145,33033,32996
2907,"Bydgoszcz",18.053,53.131,225310,274935,342196,372578,368551,364037
2909,"Chelm",23.484,51.136,31158,39127,52133,63132,62241,66255
2913,"Chojnice",17.568,53.7,19674,23550,31514,37175,37203,40363
2915,"Chrzanow",19.396,50.136,29699,38391,45155,51635,50586,49006
2916,"Ciechanow",20.617,52.87,17689,20736,33648,42601,44553,45460
2919,"Czastochowa",19.14,50.82,185867,212794,246351,263117,256098,247029
2920,"Czerwionka-Leszczyny",18.669,50.134,39548,46702,36832,41984,46787,42048
2922,"Dabica",21.421,50.043,17315,23845,34540,44254,45765,47182
2926,"Dzierzoniow",16.649,50.731,27189,32976,35915,36946,34057,34927
2927,"Elblag",19.439,54.191,78256,91632,110096,123777,120307,124554
2928,"Elk",22.361,53.821,21907,27242,38250,49846,52608,58877
2931,"Gdansk // Gdynia",18.567,54.421,508172,642131,755939,796477,786383,794554
2933,"Gizycko",21.766,54.034,14839,18316,23894,28683,29142,30152
2935,"Glogow",16.05,51.669,10808,22245,50897,69212,61014,69371
2937,"Gniezno",17.602,52.528,44767,51417,61193,68895,67667,70253
2938,"Goleniow",14.804,53.545,17034,22144,26380,30501,33107,34922
